time,input_steer,input_gas,input_brake,speed_kmh,rpm,gear,pos_x,pos_y,pos_z,vel_x,vel_y,vel_z,yaw,pitch,roll,is_sliding,wheels_contact_count
-2600,0,0,0,3.6,1.5,1074790400,0.00,1.00,0.00,0.000,1.000,0.000,0.322,0.785,-0.524,1,0
-2590,0,0,0,0.0,0.0,1,880.00,25.57,515.70,0.000,0.000,0.000,0.000,0.000,0.000,0,0
-2580,0,0,0,0.0,0.0,1,880.00,25.57,515.70,0.000,0.000,0.000,0.000,0.000,0.000,0,0
-2570,0,0,0,0.0,0.0,1,880.00,25.57,515.70,0.000,0.000,0.000,0.000,0.000,0.000,0,0
-2560,0,0,0,0.0,0.0,1,880.00,25.57,515.70,0.000,0.000,0.000,0.000,0.000,0.000,0,0
-2550,0,0,0,0.0,0.0,1,880.00,25.57,515.70,0.000,0.000,0.000,0.000,0.000,0.000,0,0
-2540,0,0,0,0.0,0.0,1,880.00,25.57,515.70,0.000,0.000,0.000,0.000,0.000,0.000,0,0
-2530,0,0,0,0.0,0.0,1,880.00,25.57,515.70,0.000,0.000,0.000,0.000,0.000,0.000,0,0
-2520,0,0,0,0.0,0.0,1,880.00,25.57,515.70,0.000,0.000,0.000,0.000,0.000,0.000,0,0
-2510,0,0,0,0.0,0.0,1,880.00,25.57,515.70,0.000,0.000,0.000,0.000,0.000,0.000,0,0
-2500,0,0,0,0.0,0.0,1,880.00,25.57,515.70,0.000,0.000,0.000,0.000,0.000,0.000,0,0
-2490,0,0,0,0.0,0.0,1,880.00,25.57,515.70,0.000,0.000,0.000,0.000,0.000,0.000,0,0
-2480,0,0,0,0.0,0.0,1,880.00,25.57,515.70,0.000,0.000,0.000,0.000,0.000,0.000,0,0
-2470,0,0,0,0.0,0.0,1,880.00,25.57,515.70,0.000,0.000,0.000,0.000,0.000,0.000,0,0
-2460,0,0,0,0.0,0.0,1,880.00,25.57,515.70,0.000,0.000,0.000,0.000,0.000,0.000,0,0
-2450,0,0,0,0.0,0.0,1,880.00,25.57,515.70,0.000,0.000,0.000,0.000,0.000,0.000,0,0
-2440,0,0,0,0.0,0.0,1,880.00,25.57,515.70,0.000,0.000,0.000,0.000,0.000,0.000,0,0
-2430,0,0,0,0.0,0.0,1,880.00,25.57,515.70,0.000,0.000,0.000,0.000,0.000,0.000,0,0
-2420,0,0,0,0.0,0.0,1,880.00,25.57,515.70,0.000,0.000,0.000,0.000,0.000,0.000,0,0
-2410,0,0,0,0.0,0.0,1,880.00,25.57,515.70,0.000,0.000,0.000,0.000,0.000,0.000,0,0
-2400,0,0,0,0.0,0.0,1,880.00,25.57,515.70,0.000,0.000,0.000,0.000,0.000,0.000,0,0
-2390,0,0,0,0.0,0.0,1,880.00,25.57,515.70,0.000,0.000,0.000,0.000,0.000,0.000,0,0
-2380,0,0,0,0.0,0.0,1,880.00,25.57,515.70,0.000,0.000,0.000,0.000,0.000,0.000,0,0
-2370,0,0,0,0.0,0.0,1,880.00,25.57,515.70,0.000,0.000,0.000,0.000,0.000,0.000,0,0
-2360,0,0,0,0.0,0.0,1,880.00,25.57,515.70,0.000,0.000,0.000,0.000,0.000,0.000,0,0
-2350,0,0,0,0.0,0.0,1,880.00,25.57,515.70,0.000,0.000,0.000,0.000,0.000,0.000,0,0
-2340,0,0,0,0.0,0.0,1,880.00,25.57,515.70,0.000,0.000,0.000,0.000,0.000,0.000,0,0
-2330,0,0,0,0.0,0.0,1,880.00,25.57,515.70,0.000,0.000,0.000,0.000,0.000,0.000,0,0
-2320,0,0,0,0.0,0.0,1,880.00,25.57,515.70,0.000,0.000,0.000,0.000,0.000,0.000,0,0
-2310,0,0,0,0.0,0.0,1,880.00,25.57,515.70,0.000,0.000,0.000,0.000,0.000,0.000,0,0
-2300,0,0,0,0.0,0.0,1,880.00,25.57,515.70,0.000,0.000,0.000,0.000,0.000,0.000,0,0
-2290,0,0,0,0.0,0.0,1,880.00,25.57,515.70,0.000,0.000,0.000,0.000,0.000,0.000,0,0
-2280,0,0,0,0.0,0.0,1,880.00,25.57,515.70,0.000,0.000,0.000,0.000,0.000,0.000,0,0
-2270,0,0,0,0.0,0.0,1,880.00,25.57,515.70,0.000,0.000,0.000,0.000,0.000,0.000,0,0
-2260,0,0,0,0.0,0.0,1,880.00,25.57,515.70,0.000,0.000,0.000,0.000,0.000,0.000,0,0
-2250,0,0,0,0.0,0.0,1,880.00,25.57,515.70,0.000,0.000,0.000,0.000,0.000,0.000,0,0
-2240,0,0,0,0.0,0.0,1,880.00,25.57,515.70,0.000,0.000,0.000,0.000,0.000,0.000,0,0
-2230,0,0,0,0.0,0.0,1,880.00,25.57,515.70,0.000,0.000,0.000,0.000,0.000,0.000,0,0
-2220,0,0,0,0.0,0.0,1,880.00,25.57,515.70,0.000,0.000,0.000,0.000,0.000,0.000,0,0
-2210,0,0,0,0.0,0.0,1,880.00,25.57,515.70,0.000,0.000,0.000,0.000,0.000,0.000,0,0
-2200,0,0,0,0.0,0.0,1,880.00,25.57,515.70,0.000,0.000,0.000,0.000,0.000,0.000,0,0
-2190,0,0,0,0.0,0.0,1,880.00,25.57,515.70,0.000,0.000,0.000,0.000,0.000,0.000,0,0
-2180,0,0,0,0.0,0.0,1,880.00,25.57,515.70,0.000,0.000,0.000,0.000,0.000,0.000,0,0
-2170,0,0,0,0.0,0.0,1,880.00,25.57,515.70,0.000,0.000,0.000,0.000,0.000,0.000,0,0
-2160,0,0,0,0.0,0.0,1,880.00,25.57,515.70,0.000,0.000,0.000,0.000,0.000,0.000,0,0
-2150,0,0,0,0.0,0.0,1,880.00,25.57,515.70,0.000,0.000,0.000,0.000,0.000,0.000,0,0
-2140,0,0,0,0.0,0.0,1,880.00,25.57,515.70,0.000,0.000,0.000,0.000,0.000,0.000,0,0
-2130,0,0,0,0.0,0.0,1,880.00,25.57,515.70,0.000,0.000,0.000,0.000,0.000,0.000,0,0
-2120,0,0,0,0.0,0.0,1,880.00,25.57,515.70,0.000,0.000,0.000,0.000,0.000,0.000,0,0
-2110,0,0,0,0.0,0.0,1,880.00,25.57,515.70,0.000,0.000,0.000,0.000,0.000,0.000,0,0
-2100,0,0,0,0.0,0.0,1,880.00,25.57,515.70,0.000,0.000,0.000,0.000,0.000,0.000,0,0
-2090,0,0,0,0.0,0.0,1,880.00,25.57,515.70,0.000,0.000,0.000,0.000,0.000,0.000,0,0
-2080,0,0,0,0.0,0.0,1,880.00,25.57,515.70,0.000,0.000,0.000,0.000,0.000,0.000,0,0
-2070,0,0,0,0.0,0.0,1,880.00,25.57,515.70,0.000,0.000,0.000,0.000,0.000,0.000,0,0
-2060,0,0,0,0.0,0.0,1,880.00,25.57,515.70,0.000,0.000,0.000,0.000,0.000,0.000,0,0
-2050,0,0,0,0.0,0.0,1,880.00,25.57,515.70,0.000,0.000,0.000,0.000,0.000,0.000,0,0
-2040,0,0,0,0.0,0.0,1,880.00,25.57,515.70,0.000,0.000,0.000,0.000,0.000,0.000,0,0
-2030,0,0,0,0.0,0.0,1,880.00,25.57,515.70,0.000,0.000,0.000,0.000,0.000,0.000,0,0
-2020,0,0,0,0.0,0.0,1,880.00,25.57,515.70,0.000,0.000,0.000,0.000,0.000,0.000,0,0
-2010,0,0,0,0.0,0.0,1,880.00,25.57,515.70,0.000,0.000,0.000,0.000,0.000,0.000,0,0
-2000,0,0,0,0.0,0.0,1,880.00,25.57,515.70,0.000,0.000,0.000,0.000,0.000,0.000,0,0
-1990,0,0,0,0.0,0.0,1,880.00,25.57,515.70,0.000,0.000,0.000,0.000,0.000,0.000,0,0
-1980,0,0,0,0.0,0.0,1,880.00,25.57,515.70,0.000,0.000,0.000,0.000,0.000,0.000,0,0
-1970,0,0,0,0.0,0.0,1,880.00,25.57,515.70,0.000,0.000,0.000,0.000,0.000,0.000,0,0
-1960,0,0,0,0.0,0.0,1,880.00,25.57,515.70,0.000,0.000,0.000,0.000,0.000,0.000,0,0
-1950,0,0,0,0.0,0.0,1,880.00,25.57,515.70,0.000,0.000,0.000,0.000,0.000,0.000,0,0
-1940,0,0,0,0.0,0.0,1,880.00,25.57,515.70,0.000,0.000,0.000,0.000,0.000,0.000,0,0
-1930,0,0,0,0.0,0.0,1,880.00,25.57,515.70,0.000,0.000,0.000,0.000,0.000,0.000,0,0
-1920,0,0,0,0.0,0.0,1,880.00,25.57,515.70,0.000,0.000,0.000,0.000,0.000,0.000,0,0
-1910,0,0,0,0.0,0.0,1,880.00,25.57,515.70,0.000,0.000,0.000,0.000,0.000,0.000,0,0
-1900,0,0,0,0.0,0.0,1,880.00,25.57,515.70,0.000,0.000,0.000,0.000,0.000,0.000,0,0
-1890,0,0,0,0.0,0.0,1,880.00,25.57,515.70,0.000,0.000,0.000,0.000,0.000,0.000,0,0
-1880,0,0,0,0.0,0.0,1,880.00,25.57,515.70,0.000,0.000,0.000,0.000,0.000,0.000,0,0
-1870,0,0,0,0.0,0.0,1,880.00,25.57,515.70,0.000,0.000,0.000,0.000,0.000,0.000,0,0
-1860,0,0,0,0.0,0.0,1,880.00,25.57,515.70,0.000,0.000,0.000,0.000,0.000,0.000,0,0
-1850,0,0,0,0.0,0.0,1,880.00,25.57,515.70,0.000,0.000,0.000,0.000,0.000,0.000,0,0
-1840,0,0,0,0.0,0.0,1,880.00,25.57,515.70,0.000,0.000,0.000,0.000,0.000,0.000,0,0
-1830,0,0,0,0.0,0.0,1,880.00,25.57,515.70,0.000,0.000,0.000,0.000,0.000,0.000,0,0
-1820,0,0,0,0.0,0.0,1,880.00,25.57,515.70,0.000,0.000,0.000,0.000,0.000,0.000,0,0
-1810,0,0,0,0.0,0.0,1,880.00,25.57,515.70,0.000,0.000,0.000,0.000,0.000,0.000,0,0
-1800,0,0,0,0.0,0.0,1,880.00,25.57,515.70,0.000,0.000,0.000,0.000,0.000,0.000,0,0
-1790,0,0,0,0.0,0.0,1,880.00,25.57,515.70,0.000,0.000,0.000,0.000,0.000,0.000,0,0
-1780,0,0,0,0.0,0.0,1,880.00,25.57,515.70,0.000,0.000,0.000,0.000,0.000,0.000,0,0
-1770,0,0,0,0.0,0.0,1,880.00,25.57,515.70,0.000,0.000,0.000,0.000,0.000,0.000,0,0
-1760,0,0,0,0.0,0.0,1,880.00,25.57,515.70,0.000,0.000,0.000,0.000,0.000,0.000,0,0
-1750,0,0,0,0.0,0.0,1,880.00,25.57,515.70,0.000,0.000,0.000,0.000,0.000,0.000,0,0
-1740,0,0,0,0.0,0.0,1,880.00,25.57,515.70,0.000,0.000,0.000,0.000,0.000,0.000,0,0
-1730,0,0,0,0.0,0.0,1,880.00,25.57,515.70,0.000,0.000,0.000,0.000,0.000,0.000,0,0
-1720,0,0,0,0.0,0.0,1,880.00,25.57,515.70,0.000,0.000,0.000,0.000,0.000,0.000,0,0
-1710,0,0,0,0.0,0.0,1,880.00,25.57,515.70,0.000,0.000,0.000,0.000,0.000,0.000,0,0
-1700,0,0,0,0.0,0.0,1,880.00,25.57,515.70,0.000,0.000,0.000,0.000,0.000,0.000,0,0
-1690,0,0,0,0.0,0.0,1,880.00,25.57,515.70,0.000,0.000,0.000,0.000,0.000,0.000,0,0
-1680,0,0,0,0.0,0.0,1,880.00,25.57,515.70,0.000,0.000,0.000,0.000,0.000,0.000,0,0
-1670,0,0,0,0.0,0.0,1,880.00,25.57,515.70,0.000,0.000,0.000,0.000,0.000,0.000,0,0
-1660,0,0,0,0.0,0.0,1,880.00,25.57,515.70,0.000,0.000,0.000,0.000,0.000,0.000,0,0
-1650,0,0,0,0.0,0.0,1,880.00,25.57,515.70,0.000,0.000,0.000,0.000,0.000,0.000,0,0
-1640,0,0,0,0.0,0.0,1,880.00,25.57,515.70,0.000,0.000,0.000,0.000,0.000,0.000,0,0
-1630,0,0,0,0.0,0.0,1,880.00,25.57,515.70,0.000,0.000,0.000,0.000,0.000,0.000,0,0
-1620,0,0,0,0.0,0.0,1,880.00,25.57,515.70,0.000,0.000,0.000,0.000,0.000,0.000,0,0
-1610,0,0,0,0.0,0.0,1,880.00,25.57,515.70,0.000,0.000,0.000,0.000,0.000,0.000,0,0
-1600,0,0,0,0.0,0.0,1,880.00,25.57,515.70,0.000,0.000,0.000,0.000,0.000,0.000,0,0
-1590,0,0,0,0.0,0.0,1,880.00,25.57,515.70,0.000,0.000,0.000,0.000,0.000,0.000,0,0
-1580,0,0,0,0.0,0.0,1,880.00,25.57,515.70,0.000,0.000,0.000,0.000,0.000,0.000,0,0
-1570,0,0,0,0.0,0.0,1,880.00,25.57,515.70,0.000,0.000,0.000,0.000,0.000,0.000,0,0
-1560,0,0,0,0.0,0.0,1,880.00,25.57,515.70,0.000,0.000,0.000,0.000,0.000,0.000,0,0
-1550,0,0,0,0.0,0.0,1,880.00,25.57,515.70,0.000,0.000,0.000,0.000,0.000,0.000,0,0
-1540,0,0,0,0.0,0.0,1,880.00,25.57,515.70,0.000,0.000,0.000,0.000,0.000,0.000,0,0
-1530,0,0,0,0.0,0.0,1,880.00,25.57,515.70,0.000,0.000,0.000,0.000,0.000,0.000,0,0
-1520,0,0,0,0.0,0.0,1,880.00,25.57,515.70,0.000,0.000,0.000,0.000,0.000,0.000,0,0
-1510,0,0,0,0.0,0.0,1,880.00,25.57,515.70,0.000,0.000,0.000,0.000,0.000,0.000,0,0
-1500,0,0,0,0.0,0.0,1,880.00,25.57,515.70,0.000,0.000,0.000,0.000,0.000,0.000,0,0
-1490,0,0,0,0.0,0.0,1,880.00,25.57,515.70,0.000,0.000,0.000,0.000,0.000,0.000,0,0
-1480,0,0,0,0.0,0.0,1,880.00,25.57,515.70,0.000,0.000,0.000,0.000,0.000,0.000,0,0
-1470,0,0,0,0.0,0.0,1,880.00,25.57,515.70,0.000,0.000,0.000,0.000,0.000,0.000,0,0
-1460,0,0,0,0.0,0.0,1,880.00,25.57,515.70,0.000,0.000,0.000,0.000,0.000,0.000,0,0
-1450,0,0,0,0.0,0.0,1,880.00,25.57,515.70,0.000,0.000,0.000,0.000,0.000,0.000,0,0
-1440,0,0,0,0.0,0.0,1,880.00,25.57,515.70,0.000,0.000,0.000,0.000,0.000,0.000,0,0
-1430,0,0,0,0.0,0.0,1,880.00,25.57,515.70,0.000,0.000,0.000,0.000,0.000,0.000,0,0
-1420,0,0,0,0.0,0.0,1,880.00,25.57,515.70,0.000,0.000,0.000,0.000,0.000,0.000,0,0
-1410,0,0,0,0.0,0.0,1,880.00,25.57,515.70,0.000,0.000,0.000,0.000,0.000,0.000,0,0
-1400,0,0,0,0.0,0.0,1,880.00,25.57,515.70,0.000,0.000,0.000,0.000,0.000,0.000,0,0
-1390,0,0,0,0.0,0.0,1,880.00,25.57,515.70,0.000,0.000,0.000,0.000,0.000,0.000,0,0
-1380,0,0,0,0.0,0.0,1,880.00,25.57,515.70,0.000,0.000,0.000,0.000,0.000,0.000,0,0
-1370,0,0,0,0.0,0.0,1,880.00,25.57,515.70,0.000,0.000,0.000,0.000,0.000,0.000,0,0
-1360,0,0,0,0.0,0.0,1,880.00,25.57,515.70,0.000,0.000,0.000,0.000,0.000,0.000,0,0
-1350,0,0,0,0.0,0.0,1,880.00,25.57,515.70,0.000,0.000,0.000,0.000,0.000,0.000,0,0
-1340,0,0,0,0.0,0.0,1,880.00,25.57,515.70,0.000,0.000,0.000,0.000,0.000,0.000,0,0
-1330,0,0,0,0.0,0.0,1,880.00,25.57,515.70,0.000,0.000,0.000,0.000,0.000,0.000,0,0
-1320,0,0,0,0.0,0.0,1,880.00,25.57,515.70,0.000,0.000,0.000,0.000,0.000,0.000,0,0
-1310,0,0,0,0.0,0.0,1,880.00,25.57,515.70,0.000,0.000,0.000,0.000,0.000,0.000,0,0
-1300,0,0,0,0.0,0.0,1,880.00,25.57,515.70,0.000,0.000,0.000,0.000,0.000,0.000,0,0
-1290,0,0,0,0.0,0.0,1,880.00,25.57,515.70,0.000,0.000,0.000,0.000,0.000,0.000,0,0
-1280,0,0,0,0.0,0.0,1,880.00,25.57,515.70,0.000,0.000,0.000,0.000,0.000,0.000,0,0
-1270,0,0,0,0.0,0.0,1,880.00,25.57,515.70,0.000,0.000,0.000,0.000,0.000,0.000,0,0
-1260,0,0,0,0.0,0.0,1,880.00,25.57,515.70,0.000,0.000,0.000,0.000,0.000,0.000,0,0
-1250,0,0,0,0.0,0.0,1,880.00,25.57,515.70,0.000,0.000,0.000,0.000,0.000,0.000,0,0
-1240,0,0,0,0.0,0.0,1,880.00,25.57,515.70,0.000,0.000,0.000,0.000,0.000,0.000,0,0
-1230,0,0,0,0.0,0.0,1,880.00,25.57,515.70,0.000,0.000,0.000,0.000,0.000,0.000,0,0
-1220,0,0,0,0.0,0.0,1,880.00,25.57,515.70,0.000,0.000,0.000,0.000,0.000,0.000,0,0
-1210,0,0,0,0.0,0.0,1,880.00,25.57,515.70,0.000,0.000,0.000,0.000,0.000,0.000,0,0
-1200,0,0,0,0.0,0.0,1,880.00,25.57,515.70,0.000,0.000,0.000,0.000,0.000,0.000,0,0
-1190,0,0,0,0.0,0.0,1,880.00,25.57,515.70,0.000,0.000,0.000,0.000,0.000,0.000,0,0
-1180,0,0,0,0.0,0.0,1,880.00,25.57,515.70,0.000,0.000,0.000,0.000,0.000,0.000,0,0
-1170,0,0,0,0.0,0.0,1,880.00,25.57,515.70,0.000,0.000,0.000,0.000,0.000,0.000,0,0
-1160,0,0,0,0.0,0.0,1,880.00,25.57,515.70,0.000,0.000,0.000,0.000,0.000,0.000,0,0
-1150,0,0,0,0.0,0.0,1,880.00,25.57,515.70,0.000,0.000,0.000,0.000,0.000,0.000,0,0
-1140,0,0,0,0.0,0.0,1,880.00,25.57,515.70,0.000,0.000,0.000,0.000,0.000,0.000,0,0
-1130,0,0,0,0.0,0.0,1,880.00,25.57,515.70,0.000,0.000,0.000,0.000,0.000,0.000,0,0
-1120,0,0,0,0.0,0.0,1,880.00,25.57,515.70,0.000,0.000,0.000,0.000,0.000,0.000,0,0
-1110,0,0,0,0.0,0.0,1,880.00,25.57,515.70,0.000,0.000,0.000,0.000,0.000,0.000,0,0
-1100,0,0,0,0.0,0.0,1,880.00,25.57,515.70,0.000,0.000,0.000,0.000,0.000,0.000,0,0
-1090,0,0,0,0.0,0.0,1,880.00,25.57,515.70,0.000,0.000,0.000,0.000,0.000,0.000,0,0
-1080,0,0,0,0.0,0.0,1,880.00,25.57,515.70,0.000,0.000,0.000,0.000,0.000,0.000,0,0
-1070,0,0,0,0.0,0.0,1,880.00,25.57,515.70,0.000,0.000,0.000,0.000,0.000,0.000,0,0
-1060,0,0,0,0.0,0.0,1,880.00,25.57,515.70,0.000,0.000,0.000,0.000,0.000,0.000,0,0
-1050,0,0,0,0.0,0.0,1,880.00,25.57,515.70,0.000,0.000,0.000,0.000,0.000,0.000,0,0
-1040,0,0,0,0.0,0.0,1,880.00,25.57,515.70,0.000,0.000,0.000,0.000,0.000,0.000,0,0
-1030,0,0,0,0.0,0.0,1,880.00,25.57,515.70,0.000,0.000,0.000,0.000,0.000,0.000,0,0
-1020,0,0,0,0.0,0.0,1,880.00,25.57,515.70,0.000,0.000,0.000,0.000,0.000,0.000,0,0
-1010,0,0,0,0.0,0.0,1,880.00,25.57,515.70,0.000,0.000,0.000,0.000,0.000,0.000,0,0
-1000,0,0,0,0.0,0.0,1,880.00,25.57,515.70,0.000,0.000,0.000,0.000,0.000,0.000,0,0
-990,0,0,0,0.0,0.0,1,880.00,25.57,515.70,0.000,0.000,0.000,0.000,0.000,0.000,0,0
-980,0,0,0,0.0,0.0,1,880.00,25.57,515.70,0.000,0.000,0.000,0.000,0.000,0.000,0,0
-970,0,0,0,0.0,0.0,1,880.00,25.57,515.70,0.000,0.000,0.000,0.000,0.000,0.000,0,0
-960,0,0,0,0.0,0.0,1,880.00,25.57,515.70,0.000,0.000,0.000,0.000,0.000,0.000,0,0
-950,0,0,0,0.0,0.0,1,880.00,25.57,515.70,0.000,0.000,0.000,0.000,0.000,0.000,0,0
-940,0,0,0,0.0,0.0,1,880.00,25.57,515.70,0.000,0.000,0.000,0.000,0.000,0.000,0,0
-930,0,0,0,0.0,0.0,1,880.00,25.57,515.70,0.000,0.000,0.000,0.000,0.000,0.000,0,0
-920,0,0,0,0.0,0.0,1,880.00,25.57,515.70,0.000,0.000,0.000,0.000,0.000,0.000,0,0
-910,0,0,0,0.0,0.0,1,880.00,25.57,515.70,0.000,0.000,0.000,0.000,0.000,0.000,0,0
-900,0,0,0,0.0,0.0,1,880.00,25.57,515.70,0.000,0.000,0.000,0.000,0.000,0.000,0,0
-890,0,0,0,0.0,0.0,1,880.00,25.57,515.70,0.000,0.000,0.000,0.000,0.000,0.000,0,0
-880,0,0,0,0.0,0.0,1,880.00,25.57,515.70,0.000,0.000,0.000,0.000,0.000,0.000,0,0
-870,0,0,0,0.0,0.0,1,880.00,25.57,515.70,0.000,0.000,0.000,0.000,0.000,0.000,0,0
-860,0,0,0,0.0,0.0,1,880.00,25.57,515.70,0.000,0.000,0.000,0.000,0.000,0.000,0,0
-850,0,0,0,0.0,0.0,1,880.00,25.57,515.70,0.000,0.000,0.000,0.000,0.000,0.000,0,0
-840,0,0,0,0.0,0.0,1,880.00,25.57,515.70,0.000,0.000,0.000,0.000,0.000,0.000,0,0
-830,0,0,0,0.0,0.0,1,880.00,25.57,515.70,0.000,0.000,0.000,0.000,0.000,0.000,0,0
-820,0,0,0,0.0,0.0,1,880.00,25.57,515.70,0.000,0.000,0.000,0.000,0.000,0.000,0,0
-810,0,0,0,0.0,0.0,1,880.00,25.57,515.70,0.000,0.000,0.000,0.000,0.000,0.000,0,0
-800,0,0,0,0.0,0.0,1,880.00,25.57,515.70,0.000,0.000,0.000,0.000,0.000,0.000,0,0
-790,0,0,0,0.0,0.0,1,880.00,25.57,515.70,0.000,0.000,0.000,0.000,0.000,0.000,0,0
-780,0,0,0,0.0,0.0,1,880.00,25.57,515.70,0.000,0.000,0.000,0.000,0.000,0.000,0,0
-770,0,0,0,0.0,0.0,1,880.00,25.57,515.70,0.000,0.000,0.000,0.000,0.000,0.000,0,0
-760,0,0,0,0.0,0.0,1,880.00,25.57,515.70,0.000,0.000,0.000,0.000,0.000,0.000,0,0
-750,0,0,0,0.0,0.0,1,880.00,25.57,515.70,0.000,0.000,0.000,0.000,0.000,0.000,0,0
-740,0,0,0,0.0,0.0,1,880.00,25.57,515.70,0.000,0.000,0.000,0.000,0.000,0.000,0,0
-730,0,0,0,0.0,0.0,1,880.00,25.57,515.70,0.000,0.000,0.000,0.000,0.000,0.000,0,0
-720,0,0,0,0.0,0.0,1,880.00,25.57,515.70,0.000,0.000,0.000,0.000,0.000,0.000,0,0
-710,0,0,0,0.0,0.0,1,880.00,25.57,515.70,0.000,0.000,0.000,0.000,0.000,0.000,0,0
-700,0,0,0,0.0,0.0,1,880.00,25.57,515.70,0.000,0.000,0.000,0.000,0.000,0.000,0,0
-690,0,0,0,0.0,0.0,1,880.00,25.57,515.70,0.000,0.000,0.000,0.000,0.000,0.000,0,0
-680,0,0,0,0.0,0.0,1,880.00,25.57,515.70,0.000,0.000,0.000,0.000,0.000,0.000,0,0
-670,0,0,0,0.0,0.0,1,880.00,25.57,515.70,0.000,0.000,0.000,0.000,0.000,0.000,0,0
-660,0,0,0,0.0,0.0,1,880.00,25.57,515.70,0.000,0.000,0.000,0.000,0.000,0.000,0,0
-650,0,0,0,0.0,0.0,1,880.00,25.57,515.70,0.000,0.000,0.000,0.000,0.000,0.000,0,0
-640,0,0,0,0.0,0.0,1,880.00,25.57,515.70,0.000,0.000,0.000,0.000,0.000,0.000,0,0
-630,0,0,0,0.0,0.0,1,880.00,25.57,515.70,0.000,0.000,0.000,0.000,0.000,0.000,0,0
-620,0,0,0,0.0,0.0,1,880.00,25.57,515.70,0.000,0.000,0.000,0.000,0.000,0.000,0,0
-610,0,0,0,0.0,0.0,1,880.00,25.57,515.70,0.000,0.000,0.000,0.000,0.000,0.000,0,0
-600,0,0,0,0.0,0.0,1,880.00,25.57,515.70,0.000,0.000,0.000,0.000,0.000,0.000,0,0
-590,0,0,0,0.0,0.0,1,880.00,25.57,515.70,0.000,0.000,0.000,0.000,0.000,0.000,0,0
-580,0,0,0,0.0,0.0,1,880.00,25.57,515.70,0.000,0.000,0.000,0.000,0.000,0.000,0,0
-570,0,0,0,0.0,0.0,1,880.00,25.57,515.70,0.000,0.000,0.000,0.000,0.000,0.000,0,0
-560,0,0,0,0.0,0.0,1,880.00,25.57,515.70,0.000,0.000,0.000,0.000,0.000,0.000,0,0
-550,0,0,0,0.0,0.0,1,880.00,25.57,515.70,0.000,0.000,0.000,0.000,0.000,0.000,0,0
-540,0,0,0,0.0,0.0,1,880.00,25.57,515.70,0.000,0.000,0.000,0.000,0.000,0.000,0,0
-530,0,0,0,0.0,0.0,1,880.00,25.57,515.70,0.000,0.000,0.000,0.000,0.000,0.000,0,0
-520,0,0,0,0.0,0.0,1,880.00,25.57,515.70,0.000,0.000,0.000,0.000,0.000,0.000,0,0
-510,0,0,0,0.0,0.0,1,880.00,25.57,515.70,0.000,0.000,0.000,0.000,0.000,0.000,0,0
-500,0,0,0,0.0,0.0,1,880.00,25.57,515.70,0.000,0.000,0.000,0.000,0.000,0.000,0,0
-490,0,0,0,0.0,0.0,1,880.00,25.57,515.70,0.000,0.000,0.000,0.000,0.000,0.000,0,0
-480,0,0,0,0.0,0.0,1,880.00,25.57,515.70,0.000,0.000,0.000,0.000,0.000,0.000,0,0
-470,0,0,0,0.0,0.0,1,880.00,25.57,515.70,0.000,0.000,0.000,0.000,0.000,0.000,0,0
-460,0,0,0,0.0,0.0,1,880.00,25.57,515.70,0.000,0.000,0.000,0.000,0.000,0.000,0,0
-450,0,0,0,0.0,0.0,1,880.00,25.57,515.70,0.000,0.000,0.000,0.000,0.000,0.000,0,0
-440,0,0,0,0.0,0.0,1,880.00,25.57,515.70,0.000,0.000,0.000,0.000,0.000,0.000,0,0
-430,0,0,0,0.0,0.0,1,880.00,25.57,515.70,0.000,0.000,0.000,0.000,0.000,0.000,0,0
-420,0,0,0,0.0,0.0,1,880.00,25.57,515.70,0.000,0.000,0.000,0.000,0.000,0.000,0,0
-410,0,0,0,0.0,0.0,1,880.00,25.57,515.70,0.000,0.000,0.000,0.000,0.000,0.000,0,0
-400,0,0,0,0.0,0.0,1,880.00,25.57,515.70,0.000,0.000,0.000,0.000,0.000,0.000,0,0
-390,0,0,0,0.0,0.0,1,880.00,25.57,515.70,0.000,0.000,0.000,0.000,0.000,0.000,0,0
-380,0,0,0,0.0,0.0,1,880.00,25.57,515.70,0.000,0.000,0.000,0.000,0.000,0.000,0,0
-370,0,0,0,0.0,0.0,1,880.00,25.57,515.70,0.000,0.000,0.000,0.000,0.000,0.000,0,0
-360,0,0,0,0.0,0.0,1,880.00,25.57,515.70,0.000,0.000,0.000,0.000,0.000,0.000,0,0
-350,0,0,0,0.0,0.0,1,880.00,25.57,515.70,0.000,0.000,0.000,0.000,0.000,0.000,0,0
-340,0,0,0,0.0,0.0,1,880.00,25.57,515.70,0.000,0.000,0.000,0.000,0.000,0.000,0,0
-330,0,0,0,0.0,0.0,1,880.00,25.57,515.70,0.000,0.000,0.000,0.000,0.000,0.000,0,0
-320,0,0,0,0.0,0.0,1,880.00,25.57,515.70,0.000,0.000,0.000,0.000,0.000,0.000,0,0
-310,0,0,0,0.0,0.0,1,880.00,25.57,515.70,0.000,0.000,0.000,0.000,0.000,0.000,0,0
-300,0,0,0,0.0,0.0,1,880.00,25.57,515.70,0.000,0.000,0.000,0.000,0.000,0.000,0,0
-290,0,0,0,0.0,0.0,1,880.00,25.57,515.70,0.000,0.000,0.000,0.000,0.000,0.000,0,0
-280,0,0,0,0.0,0.0,1,880.00,25.57,515.70,0.000,0.000,0.000,0.000,0.000,0.000,0,0
-270,0,0,0,0.0,0.0,1,880.00,25.57,515.70,0.000,0.000,0.000,0.000,0.000,0.000,0,0
-260,0,0,0,0.0,0.0,1,880.00,25.57,515.70,0.000,0.000,0.000,0.000,0.000,0.000,0,0
-250,0,0,0,0.0,0.0,1,880.00,25.57,515.70,0.000,0.000,0.000,0.000,0.000,0.000,0,0
-240,0,0,0,0.0,0.0,1,880.00,25.57,515.70,0.000,0.000,0.000,0.000,0.000,0.000,0,0
-230,0,0,0,0.0,0.0,1,880.00,25.57,515.70,0.000,0.000,0.000,0.000,0.000,0.000,0,0
-220,0,0,0,0.0,0.0,1,880.00,25.57,515.70,0.000,0.000,0.000,0.000,0.000,0.000,0,0
-210,0,0,0,0.0,0.0,1,880.00,25.57,515.70,0.000,0.000,0.000,0.000,0.000,0.000,0,0
-200,0,0,0,0.0,0.0,1,880.00,25.57,515.70,0.000,0.000,0.000,0.000,0.000,0.000,0,0
-190,0,0,0,0.0,0.0,1,880.00,25.57,515.70,0.000,0.000,0.000,0.000,0.000,0.000,0,0
-180,0,0,0,0.0,0.0,1,880.00,25.57,515.70,0.000,0.000,0.000,0.000,0.000,0.000,0,0
-170,0,0,0,0.0,0.0,1,880.00,25.57,515.70,0.000,0.000,0.000,0.000,0.000,0.000,0,0
-160,0,0,0,0.0,0.0,1,880.00,25.57,515.70,0.000,0.000,0.000,0.000,0.000,0.000,0,0
-150,0,0,0,0.0,0.0,1,880.00,25.57,515.70,0.000,0.000,0.000,0.000,0.000,0.000,0,0
-140,0,0,0,0.0,0.0,1,880.00,25.57,515.70,0.000,0.000,0.000,0.000,0.000,0.000,0,0
-130,0,0,0,0.0,0.0,1,880.00,25.57,515.70,0.000,0.000,0.000,0.000,0.000,0.000,0,0
-120,0,0,0,0.0,0.0,1,880.00,25.57,515.70,0.000,0.000,0.000,0.000,0.000,0.000,0,0
-110,0,0,0,0.0,0.0,1,880.00,25.57,515.70,0.000,0.000,0.000,0.000,0.000,0.000,0,0
-100,0,0,0,0.0,0.0,1,880.00,25.57,515.70,0.000,0.000,0.000,0.000,0.000,0.000,0,0
-90,0,0,0,0.0,0.0,1,880.00,25.57,515.70,0.000,0.000,0.000,0.000,0.000,0.000,0,0
-80,0,0,0,0.0,0.0,1,880.00,25.57,515.70,0.000,0.000,0.000,0.000,0.000,0.000,0,0
-70,0,0,0,0.0,0.0,1,880.00,25.57,515.70,0.000,0.000,0.000,0.000,0.000,0.000,0,0
-60,0,0,0,0.0,0.0,1,880.00,25.57,515.70,0.000,0.000,0.000,0.000,0.000,0.000,0,0
-50,0,0,0,0.0,0.0,1,880.00,25.57,515.70,0.000,0.000,0.000,0.000,0.000,0.000,0,0
-40,0,0,0,0.0,0.0,1,880.00,25.57,515.70,0.000,0.000,0.000,0.000,0.000,0.000,0,0
-30,0,0,0,0.0,0.0,1,880.00,25.57,515.70,0.000,0.000,0.000,0.000,0.000,0.000,0,0
-20,0,0,0,0.0,0.0,1,880.00,25.57,515.70,0.000,0.000,0.000,0.000,0.000,0.000,0,0
-10,0,0,0,0.0,0.0,1,880.00,25.57,515.70,0.000,0.000,0.000,0.000,0.000,0.000,0,0
0,0,0,0,0.0,0.0,1,880.00,25.57,515.70,0.000,0.000,0.000,0.000,0.000,0.000,0,0
10,0,0,0,1.08,0.0,1,880.00,25.57,515.70,0.000,-0.300,0.000,0.000,0.000,0.000,0,0
20,0,0,0,1.98,0.0,1,880.00,25.57,515.70,0.000,-0.550,0.000,0.000,0.000,0.000,0,0
30,0,0,0,2.88,0.0,1,880.00,25.56,515.70,0.000,-0.800,0.000,0.000,0.000,0.000,0,0
40,0,0,0,3.78,0.0,1,880.00,25.55,515.70,0.000,-1.050,0.000,0.000,0.000,0.000,0,4
50,0,0,0,4.64,0.0,1,880.00,25.54,515.70,0.000,-1.284,0.120,0.000,0.000,0.000,0,4
60,0,0,0,5.58,0.0,1,880.00,25.53,515.70,0.000,-1.524,0.280,0.000,0.000,0.000,0,4
70,0,0,0,6.45,44.4,1,880.00,25.51,515.70,-0.000,-1.736,0.440,-0.000,-0.000,-0.000,0,4
80,0,0,0,7.22,103.6,1,880.00,25.50,515.71,0.000,-1.915,0.600,-0.000,-0.000,0.000,0,4
90,0,0,0,7.9,162.75,1,880.00,25.48,515.71,0.000,-2.059,0.760,0.000,-0.001,0.000,0,4
100,0,0,0,8.48,221.82,1,880.00,25.46,515.72,0.000,-2.168,0.920,0.000,-0.001,0.000,0,4
110,0,0,0,8.95,280.8,1,880.00,25.44,515.73,-0.000,-2.240,1.080,0.000,-0.001,0.000,0,4
120,0,0,0,9.33,339.67,1,880.00,25.41,515.74,-0.000,-2.275,1.239,0.000,-0.002,0.000,0,4
130,0,0,0,9.61,398.44,1,880.00,25.39,515.76,-0.000,-2.273,1.399,0.000,-0.002,0.000,0,4
140,0,0,0,9.81,457.11,1,880.00,25.37,515.77,-0.000,-2.235,1.558,0.000,-0.003,0.000,0,4
150,0,0,0,8.5,515.69,1,880.00,25.35,515.79,-0.000,-1.619,1.717,0.000,-0.003,0.000,0,4
160,0,0,0,7.97,574.2,1,880.00,25.35,515.80,-0.000,-1.175,1.876,0.000,-0.004,0.000,0,4
170,0,0,0,7.98,633.31,1,880.00,25.35,515.82,-0.000,-0.876,2.035,0.000,-0.004,0.000,0,4
180,0,0,0,8.24,692.41,1,880.00,25.35,515.84,-0.000,-0.653,2.193,0.000,-0.005,0.000,0,4
190,0,0,0,8.65,751.42,1,880.00,25.35,515.86,-0.000,-0.485,2.352,0.000,-0.005,0.001,0,4
200,0,0,0,9.16,810.35,1,880.00,25.35,515.89,-0.000,-0.408,2.510,0.000,-0.006,0.001,0,4
210,0,0,0,9.69,869.2,1,880.00,25.35,515.91,-0.000,-0.352,2.668,0.000,-0.006,0.001,0,4
220,0,0,0,10.24,927.86,1,880.00,25.36,515.94,-0.000,-0.308,2.827,0.000,-0.006,0.001,0,4
230,0,0,0,10.79,986.49,1,880.00,25.36,515.97,-0.000,-0.272,2.985,0.000,-0.006,0.001,0,4
240,0,0,0,11.35,1045.09,1,880.00,25.35,516.00,-0.001,-0.242,3.143,0.000,-0.006,0.002,0,4
250,0,0,0,11.91,1103.69,1,880.00,25.35,516.03,-0.001,-0.217,3.301,0.000,-0.006,0.002,0,4
260,0,0,0,12.47,1162.29,1,880.00,25.35,516.06,-0.001,-0.195,3.459,0.000,-0.005,0.002,0,4
270,0,0,0,13.04,1220.91,1,880.00,25.35,516.10,-0.001,-0.176,3.618,0.000,-0.005,0.002,0,4
280,0,0,0,13.61,1279.56,1,880.00,25.35,516.13,-0.001,-0.159,3.776,0.000,-0.004,0.002,0,4
290,0,0,0,14.18,1338.24,1,880.00,25.35,516.17,-0.001,-0.143,3.935,0.000,-0.004,0.002,0,4
300,0,0,0,14.74,1396.96,1,880.00,25.35,516.21,-0.001,-0.115,4.094,-0.000,-0.003,0.002,0,4
310,0,0,0,15.31,1455.73,1,880.00,25.35,516.25,-0.001,-0.092,4.253,-0.000,-0.003,0.002,0,4
320,0,0,0,15.88,1514.55,1,880.00,25.35,516.29,-0.001,-0.073,4.412,-0.000,-0.003,0.002,0,4
330,0,0,0,16.46,1573.41,1,880.00,25.35,516.34,-0.001,-0.058,4.571,-0.000,-0.003,0.002,0,4
340,0,0,0,17.03,1632.3,1,880.00,25.35,516.38,-0.001,-0.044,4.730,-0.000,-0.002,0.002,0,4
350,0,0,0,17.6,1691.21,1,880.00,25.35,516.43,-0.001,-0.029,4.889,-0.000,-0.002,0.002,0,4
360,0,0,0,18.18,1750.13,1,880.00,25.35,516.48,-0.001,-0.019,5.049,-0.000,-0.002,0.002,0,4
370,0,0,0,18.75,1809.08,1,880.00,25.35,516.53,-0.001,-0.010,5.208,-0.000,-0.002,0.001,0,4
380,0,0,0,19.32,1868.02,1,880.00,25.35,516.58,-0.001,-0.002,5.367,-0.000,-0.002,0.001,0,4
390,0,0,0,19.9,1926.97,1,880.00,25.35,516.63,-0.001,0.007,5.527,-0.000,-0.003,0.001,0,4
400,0,0,0,20.47,1985.91,1,880.00,25.35,516.69,-0.001,0.015,5.686,-0.000,-0.003,0.001,0,4
410,0,0,0,21.04,2044.84,1,880.00,25.35,516.75,-0.001,0.023,5.845,-0.000,-0.003,0.001,0,4
420,0,0,0,21.61,2103.75,1,880.00,25.35,516.81,-0.001,0.030,6.004,-0.000,-0.003,0.001,0,4
430,0,0,0,22.19,2162.64,1,880.00,25.35,516.87,-0.000,0.037,6.163,-0.000,-0.004,0.001,0,4
440,0,0,0,22.76,2221.5,1,880.00,25.35,516.93,-0.000,0.041,6.322,-0.000,-0.004,0.001,0,4
450,0,0,0,23.33,2280.32,1,880.00,25.35,516.99,-0.000,0.045,6.481,-0.000,-0.005,0.001,0,4
460,0,0,0,23.9,2339.11,1,880.00,25.35,517.06,-0.000,0.048,6.639,-0.000,-0.005,0.001,0,4
470,0,0,0,24.47,2397.86,1,880.00,25.35,517.12,-0.000,0.049,6.798,-0.000,-0.006,0.001,0,4
480,0,0,0,25.04,2456.55,1,880.00,25.35,517.19,-0.000,0.050,6.956,-0.000,-0.006,0.001,0,4
490,0,0,0,25.61,2515.2,1,880.00,25.35,517.26,-0.000,0.049,7.114,-0.000,-0.006,0.001,0,4
500,0,0,0,26.18,2573.8,1,880.00,25.36,517.33,-0.000,0.047,7.272,-0.000,-0.007,0.000,0,4
510,0,0,0,26.75,2632.34,1,880.00,25.36,517.41,-0.000,0.045,7.430,-0.000,-0.007,0.000,0,4
520,0,0,0,27.32,2690.83,1,880.00,25.36,517.48,-0.000,0.041,7.588,-0.000,-0.008,0.000,0,4
530,0,0,0,27.89,2749.27,1,880.00,25.36,517.56,-0.000,0.037,7.746,-0.000,-0.008,0.000,0,4
540,0,0,0,28.45,2807.65,1,880.00,25.36,517.63,-0.000,0.031,7.903,-0.000,-0.009,0.000,0,4
550,0,0,0,29.02,2865.99,1,880.00,25.36,517.71,-0.000,0.026,8.061,-0.000,-0.009,0.000,0,4
560,0,0,0,29.59,2924.28,1,880.00,25.36,517.79,-0.000,0.019,8.218,-0.000,-0.009,0.000,0,4
570,0,0,0,30.15,2982.53,1,880.00,25.36,517.88,-0.000,0.013,8.376,-0.000,-0.009,0.000,0,4
580,0,0,0,30.72,3040.75,1,880.00,25.36,517.96,-0.000,0.006,8.533,-0.000,-0.010,0.000,0,4
590,0,0,0,31.28,3098.93,1,880.00,25.36,518.04,-0.000,0.000,8.690,-0.000,-0.010,0.000,0,4
600,0,0,0,31.85,3157.09,1,880.00,25.36,518.13,-0.000,-0.007,8.847,-0.000,-0.010,-0.000,0,4
610,0,0,0,32.42,3215.22,1,880.00,25.36,518.22,-0.000,-0.015,9.005,-0.000,-0.010,-0.000,0,4
620,0,0,0,32.98,3273.34,1,880.00,25.36,518.31,-0.000,-0.022,9.162,-0.000,-0.010,-0.000,0,4
630,0,0,0,33.55,3331.45,1,880.00,25.36,518.40,-0.000,-0.029,9.319,-0.000,-0.010,-0.000,0,4
640,0,0,0,34.11,3389.56,1,880.00,25.36,518.49,-0.000,-0.036,9.476,-0.000,-0.010,-0.000,0,4
650,0,0,0,34.68,3447.67,1,880.00,25.36,518.59,-0.000,-0.042,9.633,-0.000,-0.010,-0.000,0,4
660,0,0,0,35.25,3505.79,1,880.00,25.36,518.69,-0.000,-0.047,9.790,-0.000,-0.009,-0.000,0,4
670,0,0,0,35.81,3563.92,1,880.00,25.36,518.78,-0.000,-0.052,9.948,-0.000,-0.009,-0.000,0,4
680,0,0,0,36.38,3622.07,1,880.00,25.36,518.88,-0.000,-0.057,10.105,-0.000,-0.009,-0.000,0,4
690,0,0,0,36.94,3680.24,1,880.00,25.36,518.98,-0.000,-0.060,10.262,-0.000,-0.009,-0.000,0,4
700,0,0,0,37.51,3738.44,1,880.00,25.36,519.09,-0.000,-0.063,10.420,-0.000,-0.008,-0.000,0,4
710,0,0,0,38.08,3796.67,1,880.00,25.36,519.19,-0.000,-0.065,10.577,-0.000,-0.008,-0.000,0,4
720,0,0,0,38.65,3854.94,1,880.00,25.36,519.30,-0.000,-0.066,10.735,-0.000,-0.008,-0.000,0,4
730,0,0,0,39.21,3913.23,1,880.00,25.36,519.40,-0.000,-0.066,10.892,-0.000,-0.007,-0.000,0,4
740,0,0,0,39.78,3971.56,1,880.00,25.35,519.51,-0.000,-0.065,11.050,-0.000,-0.007,-0.000,0,4
750,0,0,0,40.35,4029.93,1,880.00,25.35,519.62,-0.000,-0.064,11.208,-0.000,-0.007,-0.000,0,4
760,0,0,0,40.92,4088.34,1,880.00,25.35,519.73,-0.000,-0.062,11.366,-0.000,-0.006,-0.000,0,4
770,0,0,0,41.49,4146.78,1,880.00,25.35,519.85,-0.000,-0.059,11.524,-0.000,-0.006,-0.000,0,4
780,0,0,0,42.06,4205.26,1,880.00,25.35,519.96,-0.000,-0.056,11.682,-0.000,-0.006,-0.000,0,4
790,0,0,0,42.63,4263.77,1,880.00,25.35,520.08,-0.000,-0.052,11.841,-0.000,-0.006,-0.000,0,4
800,0,0,0,43.2,4322.31,1,880.00,25.35,520.20,-0.000,-0.048,11.999,-0.000,-0.005,-0.000,0,4
810,0,0,0,43.77,4380.88,1,880.00,25.35,520.32,-0.000,-0.043,12.157,-0.000,-0.005,-0.000,0,4
820,0,0,0,44.34,4439.48,1,880.00,25.35,520.44,-0.000,-0.038,12.316,-0.000,-0.005,-0.000,0,4
830,0,0,0,44.91,4498.1,1,880.00,25.35,520.56,-0.000,-0.033,12.474,-0.000,-0.005,-0.000,0,4
840,0,0,0,45.48,4556.74,1,880.00,25.35,520.69,-0.000,-0.028,12.633,-0.000,-0.005,-0.000,0,4
850,0,0,0,46.05,4615.4,1,880.00,25.35,520.81,-0.000,-0.022,12.791,-0.000,-0.005,-0.000,0,4
860,0,0,0,46.62,4674.07,1,880.00,25.35,520.94,-0.000,-0.017,12.950,-0.000,-0.005,-0.000,0,4
870,0,0,0,47.19,4732.74,1,880.00,25.35,521.07,-0.000,-0.012,13.109,-0.000,-0.005,-0.000,0,4
880,0,0,0,47.76,4791.43,1,880.00,25.35,521.20,-0.000,-0.007,13.267,-0.000,-0.005,-0.000,0,4
890,0,0,0,48.33,4850.11,1,880.00,25.35,521.34,-0.000,-0.002,13.426,-0.000,-0.005,-0.000,0,4
900,0,0,0,48.9,4908.8,1,880.00,25.35,521.47,-0.000,0.002,13.584,-0.000,-0.005,-0.000,0,4
910,0,0,0,49.47,4967.47,1,880.00,25.35,521.61,-0.000,0.006,13.743,-0.000,-0.005,0.000,0,4
920,0,0,0,50.04,5026.14,1,880.00,25.35,521.74,-0.000,0.009,13.901,-0.000,-0.005,0.000,0,4
930,0,0,0,50.61,5084.79,1,880.00,25.35,521.88,-0.000,0.012,14.060,-0.000,-0.005,0.000,0,4
940,0,0,0,51.19,5143.42,1,880.00,25.35,522.02,-0.000,0.014,14.218,-0.000,-0.006,0.000,0,4
950,0,0,0,51.75,5202.04,1,880.00,25.35,522.16,-0.001,0.016,14.376,-0.000,-0.006,0.000,0,4
960,0,0,0,52.32,5260.63,1,880.00,25.35,522.31,-0.001,0.017,14.535,-0.000,-0.006,0.000,0,4
970,0,0,0,52.89,5319.2,1,880.00,25.35,522.45,-0.001,0.017,14.693,-0.000,-0.006,0.000,0,4
980,0,0,0,53.46,5377.74,1,880.00,25.35,522.60,-0.001,0.017,14.851,-0.000,-0.007,0.000,0,4
990,0,0,0,54.03,5436.26,1,880.00,25.35,522.75,-0.001,0.016,15.009,-0.000,-0.007,0.000,0,4
1000,0,0,0,54.6,5494.75,1,880.00,25.35,522.90,-0.001,0.015,15.167,-0.000,-0.007,0.000,0,4
1010,0,0,0,55.17,5553.21,1,880.00,25.36,523.05,-0.001,0.013,15.325,-0.000,-0.007,0.000,0,4
1020,0,0,0,55.74,5611.65,1,880.00,25.36,523.21,-0.001,0.011,15.483,-0.000,-0.008,0.000,0,4
1030,0,0,0,56.31,5670.06,1,880.00,25.36,523.36,-0.001,0.008,15.640,-0.000,-0.008,0.000,0,4
1040,0,0,0,56.87,5728.44,1,880.00,25.36,523.52,-0.001,0.005,15.798,-0.000,-0.008,0.000,0,4
1050,0,0,0,57.44,5786.8,1,880.00,25.36,523.67,-0.001,0.002,15.956,-0.000,-0.008,0.000,0,4
1060,0,0,0,58.01,5845.14,1,880.00,25.36,523.83,-0.001,-0.001,16.113,-0.000,-0.008,0.000,0,4
1070,0,0,0,58.58,5903.47,1,880.00,25.36,524.00,-0.001,-0.005,16.271,-0.000,-0.008,0.000,0,4
1080,0,0,0,59.14,5961.77,1,880.00,25.36,524.16,-0.001,-0.009,16.429,-0.000,-0.008,0.000,0,4
1090,0,0,0,59.71,6020.07,1,880.00,25.36,524.32,-0.001,-0.013,16.586,-0.000,-0.008,0.000,0,4
1100,0,0,0,60.28,6078.35,1,880.00,25.36,524.49,-0.001,-0.017,16.744,-0.000,-0.008,0.000,0,4
1110,0,0,0,60.84,6136.62,1,880.00,25.36,524.66,-0.001,-0.020,16.901,-0.000,-0.008,0.000,0,4
1120,0,0,0,61.41,6194.89,1,880.00,25.36,524.82,-0.001,-0.024,17.059,-0.000,-0.008,0.000,0,4
1130,0,0,0,61.98,6253.16,1,880.00,25.36,525.00,-0.001,-0.027,17.216,-0.000,-0.008,0.000,0,4
1140,0,0,0,62.55,6311.43,1,880.00,25.36,525.17,-0.001,-0.031,17.374,-0.000,-0.008,0.000,0,4
1150,0,0,0,63.11,6369.71,1,880.00,25.36,525.34,-0.001,-0.033,17.531,-0.000,-0.008,0.000,0,4
1160,0,0,0,63.68,6427.99,1,880.00,25.36,525.52,-0.001,-0.036,17.689,-0.000,-0.008,0.000,0,4
1170,0,0,0,64.25,6486.29,1,880.00,25.36,525.69,-0.001,-0.038,17.847,-0.000,-0.008,0.000,0,4
1180,0,0,0,64.82,6544.59,1,880.00,25.36,525.87,-0.001,-0.040,18.004,-0.000,-0.008,0.000,0,4
1190,0,0,0,65.38,6602.91,1,880.00,25.36,526.05,-0.001,-0.041,18.162,-0.000,-0.008,0.000,0,4
1200,0,0,0,65.95,6661.25,1,880.00,25.36,526.23,-0.001,-0.042,18.320,-0.000,-0.007,0.000,0,4
1210,0,0,0,66.52,6719.6,1,880.00,25.36,526.42,-0.001,-0.043,18.477,-0.000,-0.007,0.000,0,4
1220,0,0,0,67.09,6777.97,1,880.00,25.36,526.60,-0.001,-0.043,18.635,-0.000,-0.007,0.000,0,4
1230,0,0,0,67.66,6836.36,1,880.00,25.35,526.79,-0.001,-0.043,18.793,-0.000,-0.007,0.000,0,4
1240,0,0,0,68.22,6894.77,1,880.00,25.35,526.98,-0.001,-0.042,18.951,-0.000,-0.007,0.000,0,4
1250,0,0,0,68.79,6953.2,1,880.00,25.35,527.16,-0.001,-0.041,19.109,-0.000,-0.007,0.000,0,4
1260,0,0,0,69.36,7011.64,1,880.00,25.35,527.36,-0.001,-0.039,19.267,-0.000,-0.006,0.000,0,4
1270,0,0,0,69.93,7070.1,1,880.00,25.35,527.55,-0.001,-0.038,19.425,-0.000,-0.006,0.000,0,4
1280,0,0,0,70.5,7128.59,1,880.00,25.35,527.74,-0.001,-0.036,19.583,-0.000,-0.006,0.000,0,4
1290,0,0,0,71.07,7187.08,1,880.00,25.35,527.94,-0.001,-0.033,19.741,-0.000,-0.006,0.000,0,4
1300,0,0,0,71.64,7245.6,1,880.00,25.35,528.14,-0.001,-0.031,19.900,-0.000,-0.006,0.000,0,4
1310,0,0,0,72.21,7304.12,1,880.00,25.35,528.33,-0.001,-0.028,20.058,-0.000,-0.006,0.000,0,4
1320,0,0,0,72.78,7362.66,1,880.00,25.35,528.54,-0.001,-0.026,20.216,-0.000,-0.006,0.000,0,4
1330,0,0,0,73.35,7421.21,1,880.00,25.35,528.74,-0.001,-0.023,20.374,-0.000,-0.006,0.000,0,4
1340,0,0,0,73.92,7479.77,1,880.00,25.35,528.94,-0.001,-0.020,20.533,-0.000,-0.006,0.000,0,4
1350,0,0,0,74.49,7538.33,1,880.00,25.35,529.15,-0.001,-0.017,20.691,-0.000,-0.006,0.000,0,4
1360,0,0,0,75.06,7596.9,1,880.00,25.35,529.35,-0.001,-0.015,20.849,-0.000,-0.006,0.000,0,4
1370,0,0,0,75.63,7655.47,1,880.00,25.35,529.56,-0.001,-0.012,21.007,-0.000,-0.006,0.000,0,4
1380,0,0,0,76.2,7714.04,1,880.00,25.35,529.77,-0.001,-0.010,21.166,-0.000,-0.006,0.000,0,4
1390,0,0,0,76.77,7772.61,1,880.00,25.35,529.98,-0.001,-0.008,21.324,-0.000,-0.006,0.000,0,4
1400,0,0,0,77.34,7831.17,1,880.00,25.35,530.20,-0.001,-0.006,21.482,-0.000,-0.006,0.000,0,4
1410,0,0,0,77.91,7889.73,1,880.00,25.35,530.41,-0.001,-0.004,21.640,-0.000,-0.006,0.000,0,4
1420,0,0,0,78.48,7948.28,1,880.00,25.35,530.63,-0.001,-0.002,21.799,-0.000,-0.006,0.000,0,4
1430,0,0,0,79.04,8006.82,1,880.00,25.35,530.85,-0.001,-0.001,21.957,-0.000,-0.006,0.000,0,4
1440,0,0,0,79.61,8065.35,1,880.00,25.35,531.07,-0.001,-0.000,22.115,-0.000,-0.006,0.000,0,4
1450,0,0,0,80.18,8123.87,1,880.00,25.35,531.29,-0.001,0.000,22.273,-0.000,-0.006,0.000,0,4
1460,0,0,0,80.75,8182.37,1,880.00,25.35,531.51,-0.001,0.000,22.431,-0.000,-0.007,0.000,0,4
1470,0,0,0,81.32,8240.87,1,880.00,25.35,531.73,-0.001,0.000,22.589,-0.000,-0.007,0.000,0,4
1480,0,0,0,81.89,8299.34,1,880.00,25.35,531.96,-0.001,-0.000,22.747,-0.000,-0.007,0.000,0,4
1490,0,0,0,82.46,8357.81,1,880.00,25.35,532.19,-0.001,-0.001,22.905,-0.000,-0.007,0.000,0,4
1500,0,0,0,83.03,8416.26,1,880.00,25.35,532.42,-0.001,-0.002,23.063,-0.000,-0.007,0.000,0,4
1510,0,0,0,83.6,8474.7,1,880.00,25.36,532.65,-0.001,-0.003,23.221,-0.000,-0.007,0.000,0,4
1520,0,0,0,84.16,8533.12,1,880.00,25.36,532.88,-0.001,-0.004,23.379,-0.000,-0.007,0.000,0,4
1530,0,0,0,84.73,8591.53,1,880.00,25.36,533.11,-0.001,-0.006,23.537,-0.000,-0.007,0.000,0,4
1540,0,0,0,85.3,8649.93,1,880.00,25.36,533.35,-0.001,-0.007,23.695,-0.000,-0.007,0.000,0,4
1550,0,0,0,85.87,8708.32,1,880.00,25.36,533.59,-0.001,-0.009,23.852,-0.000,-0.008,0.000,0,4
1560,0,0,0,86.44,8766.7,1,880.00,25.36,533.82,-0.001,-0.011,24.010,-0.000,-0.008,0.000,0,4
1570,0,0,0,87.0,8825.07,1,880.00,25.36,534.06,-0.001,-0.013,24.168,-0.000,-0.008,0.000,0,4
1580,0,0,0,87.57,8883.44,1,880.00,25.36,534.31,-0.001,-0.015,24.326,-0.000,-0.008,0.000,0,4
1590,0,0,0,88.14,8941.8,1,880.00,25.36,534.55,-0.001,-0.017,24.483,-0.000,-0.008,0.000,0,4
1600,0,0,0,88.71,9000.16,1,880.00,25.36,534.79,-0.001,-0.019,24.641,-0.000,-0.008,0.000,0,4
1610,0,0,0,89.28,9058.51,1,880.00,25.36,535.04,-0.001,-0.021,24.799,-0.000,-0.008,0.000,0,4
1620,0,0,0,89.84,9116.86,1,880.00,25.36,535.29,-0.001,-0.023,24.957,-0.000,-0.008,0.000,0,4
1630,0,0,0,90.41,9175.22,1,880.00,25.36,535.54,-0.001,-0.024,25.114,-0.000,-0.008,0.000,0,4
1640,0,0,0,90.98,9233.57,1,880.00,25.36,535.79,-0.001,-0.026,25.272,-0.000,-0.008,0.000,0,4
1650,0,0,0,91.55,9291.94,1,880.00,25.36,536.04,-0.001,-0.027,25.430,-0.000,-0.008,0.000,0,4
1660,0,0,0,92.12,9350.3,1,880.00,25.36,536.30,-0.001,-0.028,25.588,-0.000,-0.007,0.000,0,4
1670,0,0,0,92.68,9408.67,1,880.00,25.36,536.55,-0.001,-0.029,25.745,-0.000,-0.007,0.000,0,4
1680,0,0,0,93.25,9467.05,1,880.00,25.36,536.81,-0.001,-0.030,25.903,-0.000,-0.007,0.000,0,4
1690,0,0,0,93.82,9525.44,1,880.00,25.36,537.07,-0.001,-0.030,26.061,-0.000,-0.007,0.000,0,4
1700,0,0,0,94.39,9583.84,1,880.00,25.35,537.33,-0.001,-0.031,26.219,-0.000,-0.007,0.000,0,4
1710,0,0,0,94.96,9642.24,1,880.00,25.35,537.59,-0.001,-0.031,26.377,-0.000,-0.007,0.000,0,4
1720,0,0,0,95.52,9700.66,1,880.00,25.35,537.86,-0.001,-0.031,26.535,-0.000,-0.007,0.000,0,4
1730,0,0,0,96.09,9759.08,1,880.00,25.35,538.12,-0.001,-0.030,26.693,-0.000,-0.007,0.000,0,4
1740,0,0,0,96.66,9817.52,1,880.00,25.35,538.39,-0.001,-0.030,26.851,-0.000,-0.007,0.000,0,4
1750,0,0,0,97.23,9875.96,1,880.00,25.35,538.66,-0.001,-0.029,27.009,-0.000,-0.007,0.000,0,4
1760,0,0,0,97.8,9934.41,1,880.00,25.35,538.93,-0.001,-0.028,27.167,-0.000,-0.007,0.000,0,4
1770,0,0,0,98.37,9992.88,1,880.00,25.35,539.20,-0.001,-0.027,27.325,-0.000,-0.007,0.000,0,4
1780,0,0,0,98.94,10051.35,1,880.00,25.35,539.47,-0.001,-0.026,27.483,-0.000,-0.006,0.000,0,4
1790,0,0,0,99.51,10109.83,1,880.00,25.35,539.75,-0.001,-0.025,27.641,-0.000,-0.006,0.000,0,4
1800,0,0,0,100.08,10168.31,1,880.00,25.35,540.02,-0.001,-0.023,27.799,-0.000,-0.006,0.000,0,4
1810,0,0,0,100.64,10226.81,1,880.00,25.35,540.30,-0.001,-0.022,27.957,-0.000,-0.006,0.000,0,4
1820,0,0,0,101.21,10285.3,1,880.00,25.35,540.58,-0.001,-0.021,28.115,-0.000,-0.006,0.000,0,4
1830,0,0,0,101.6,10343.8,1,880.00,25.35,540.86,-0.001,-0.019,28.223,-0.000,-0.006,0.000,0,4
1840,0,0,0,101.99,10402.31,1,880.00,25.35,541.14,-0.001,-0.019,28.331,-0.000,-0.006,0.000,0,4
1850,0,0,0,102.38,10442.32,1,880.00,25.35,541.43,-0.001,-0.018,28.439,-0.000,-0.006,0.000,0,4
1860,0,0,0,102.38,10482.32,2,880.00,25.35,541.71,-0.001,-0.019,28.438,-0.000,-0.006,0.000,0,4
1870,0,0,0,102.37,10482.32,2,880.00,25.35,541.99,-0.001,-0.020,28.436,-0.000,-0.006,0.000,0,4
1880,0,0,0,102.36,10482.32,2,880.00,25.35,542.28,-0.001,-0.022,28.434,-0.000,-0.006,0.000,0,4
1890,0,0,0,102.36,6255.7,2,880.00,25.35,542.56,-0.001,-0.024,28.432,-0.000,-0.006,0.000,0,4
1900,0,0,0,102.35,6255.29,2,880.00,25.35,542.85,-0.001,-0.029,28.430,-0.000,-0.006,0.000,0,4
1910,0,0,0,102.34,6254.9,2,880.00,25.35,543.13,-0.001,-0.033,28.429,-0.000,-0.006,0.000,0,4
1920,0,0,0,102.34,6254.51,2,880.00,25.35,543.42,-0.001,-0.037,28.427,-0.000,-0.005,0.000,0,4
1930,0,0,0,102.33,6254.13,2,880.00,25.35,543.70,-0.001,-0.042,28.425,-0.000,-0.005,0.000,0,4
1940,0,0,0,102.33,6253.78,2,880.00,25.35,543.98,-0.001,-0.046,28.424,-0.000,-0.004,0.000,0,4
1950,0,0,0,102.32,6253.45,2,880.00,25.35,544.27,-0.001,-0.050,28.423,-0.000,-0.004,0.000,0,4
1960,0,0,0,102.32,6253.14,2,880.00,25.35,544.55,-0.001,-0.053,28.421,-0.000,-0.003,0.000,0,4
1970,0,0,0,102.31,6252.86,2,880.00,25.35,544.84,-0.001,-0.056,28.420,-0.000,-0.003,0.000,0,4
1980,0,0,0,102.31,6252.61,2,880.00,25.35,545.12,-0.001,-0.059,28.419,-0.000,-0.002,0.000,0,4
1990,0,0,0,102.31,6252.4,2,880.00,25.35,545.40,-0.001,-0.060,28.419,-0.000,-0.002,0.000,0,4
2000,0,0,0,102.31,6252.23,2,880.00,25.35,545.69,-0.001,-0.062,28.418,-0.000,-0.001,0.000,0,4
2010,0,0,0,102.31,6252.1,2,880.00,25.35,545.97,-0.001,-0.062,28.418,-0.000,-0.000,0.000,0,4
2020,0,0,0,102.31,6252.02,2,880.00,25.35,546.26,-0.001,-0.062,28.418,-0.000,0.001,0.000,0,4
2030,0,0,0,102.31,6251.97,2,880.00,25.35,546.54,-0.001,-0.063,28.418,-0.000,0.002,0.000,0,4
2040,0,0,0,102.31,6251.98,2,880.00,25.35,546.82,-0.001,-0.075,28.419,-0.000,0.002,0.000,0,4
2050,0,0,0,102.31,6252.04,2,880.00,25.35,547.11,-0.001,-0.093,28.419,-0.000,0.003,0.000,0,4
2060,0,0,0,102.31,6252.14,2,880.00,25.35,547.39,-0.001,-0.115,28.420,-0.000,0.005,0.000,0,4
2070,0,0,0,102.32,6252.31,2,880.00,25.35,547.67,-0.001,-0.141,28.422,-0.000,0.006,0.000,0,4
2080,0,0,0,102.33,6252.53,2,880.00,25.35,547.96,-0.001,-0.170,28.423,-0.000,0.007,-0.000,0,4
2090,0,0,0,102.33,6252.83,2,880.00,25.34,548.24,-0.001,-0.200,28.425,-0.000,0.008,-0.000,0,4
2100,0,0,0,102.34,6253.21,2,880.00,25.34,548.53,-0.001,-0.233,28.427,-0.000,0.010,-0.000,0,4
2110,0,0,0,102.35,6253.66,2,880.00,25.34,548.81,-0.001,-0.266,28.430,-0.000,0.012,-0.000,0,4
2120,0,0,0,102.37,6254.21,2,880.00,25.34,549.09,-0.001,-0.300,28.433,-0.000,0.014,-0.000,0,4
2130,0,0,0,102.38,6254.86,2,880.00,25.34,549.38,-0.001,-0.334,28.437,-0.000,0.015,-0.000,0,4
2140,0,0,0,102.79,6255.61,2,880.00,25.33,549.66,-0.001,-0.377,28.551,-0.000,0.017,-0.000,0,4
2150,0,0,0,103.21,6256.47,2,880.00,25.33,549.94,-0.001,-0.427,28.665,-0.000,0.019,-0.000,0,4
2160,0,0,0,103.62,6281.65,2,880.00,25.33,550.23,-0.001,-0.478,28.780,-0.000,0.021,-0.000,0,4
2170,0,0,0,104.04,6306.96,2,880.00,25.32,550.52,-0.001,-0.531,28.895,-0.000,0.023,-0.000,0,4
2180,0,0,0,104.46,6332.39,2,880.00,25.32,550.80,-0.001,-0.610,29.010,-0.000,0.025,-0.000,0,4
2190,0,0,0,104.88,6357.96,2,880.00,25.31,551.09,-0.001,-0.696,29.126,-0.000,0.027,-0.000,0,4
2200,0,0,0,105.31,6383.67,2,880.00,25.31,551.38,-0.001,-0.787,29.242,-0.000,0.029,-0.000,0,4
2210,0,0,0,105.73,6409.5,2,880.00,25.30,551.68,-0.001,-0.881,29.357,-0.000,0.030,-0.000,0,4
2220,0,0,0,106.16,6435.46,2,880.00,25.29,551.97,-0.001,-0.976,29.474,-0.000,0.032,-0.000,0,4
2230,0,0,0,106.6,6461.55,2,880.00,25.28,552.26,-0.001,-1.072,29.590,-0.000,0.034,-0.000,0,4
2240,0,0,0,107.03,6487.77,2,880.00,25.27,552.56,-0.001,-1.167,29.708,-0.000,0.037,-0.000,0,4
2250,0,0,0,107.47,6514.15,2,880.00,25.26,552.85,-0.001,-1.259,29.825,-0.000,0.039,-0.000,0,4
2260,0,0,0,107.91,6567.35,2,880.00,25.25,553.15,-0.001,-1.325,29.945,-0.000,0.042,-0.000,0,4
2270,0,0,0,108.35,6594.22,2,880.00,25.24,553.45,-0.001,-1.408,30.064,-0.000,0.044,-0.000,0,4
2280,0,0,0,108.79,6621.26,2,880.00,25.22,553.75,-0.001,-1.505,30.183,-0.000,0.047,-0.000,0,4
2290,0,0,0,109.24,6648.49,2,880.00,25.21,554.05,-0.001,-1.602,30.303,-0.000,0.050,-0.000,0,4
2300,0,0,0,109.69,6675.92,2,880.00,25.19,554.35,-0.001,-1.697,30.423,-0.000,0.053,-0.000,0,4
2310,0,0,0,110.15,6703.52,2,880.00,25.18,554.66,-0.001,-1.813,30.543,-0.000,0.055,-0.000,0,4
2320,0,0,0,110.61,6731.32,2,880.00,25.16,554.96,-0.001,-1.934,30.664,-0.000,0.058,-0.000,0,4
2330,0,0,0,111.07,6759.31,2,880.00,25.14,555.27,-0.001,-2.056,30.784,-0.000,0.061,0.000,0,4
2340,0,0,0,111.54,6787.5,2,880.00,25.12,555.57,-0.001,-2.177,30.905,-0.000,0.063,0.000,0,4
2350,0,0,0,112.0,6815.89,2,880.00,25.10,555.88,-0.001,-2.295,31.027,-0.000,0.066,0.000,0,4
2360,0,0,0,112.48,6844.48,2,880.00,25.08,556.19,-0.001,-2.410,31.150,-0.000,0.069,0.000,0,4
2370,0,0,0,112.95,6873.27,2,880.00,25.05,556.50,-0.001,-2.519,31.274,-0.000,0.072,0.000,0,4
2380,0,0,0,113.43,6902.27,2,880.00,25.03,556.81,-0.001,-2.620,31.399,-0.000,0.075,0.000,0,4
2390,0,0,0,113.91,6931.48,2,880.00,25.00,557.13,-0.001,-2.714,31.525,-0.000,0.079,0.000,0,4
2400,0,0,0,114.39,6960.88,2,880.00,24.98,557.44,-0.001,-2.804,31.652,-0.000,0.082,0.000,0,4
2410,0,0,0,114.88,6990.49,2,880.00,24.95,557.76,-0.001,-2.908,31.778,-0.000,0.085,0.000,0,4
2420,0,0,0,115.37,7020.31,2,880.00,24.92,558.07,-0.001,-3.007,31.906,-0.000,0.088,0.000,0,4
2430,0,0,0,115.86,7050.32,2,880.00,24.89,558.39,-0.001,-3.102,32.035,-0.000,0.091,0.000,0,4
2440,0,0,0,116.36,7080.53,2,880.00,24.86,558.71,-0.001,-3.179,32.166,-0.000,0.094,0.000,0,4
2450,0,0,0,116.86,7110.91,2,880.00,24.83,559.03,-0.001,-3.246,32.299,-0.000,0.097,0.000,0,4
2460,0,0,0,117.36,7141.43,2,880.00,24.80,559.35,-0.001,-3.302,32.433,-0.000,0.099,0.000,0,4
2470,0,0,0,117.87,7172.09,2,880.00,24.77,559.68,-0.001,-3.347,32.569,-0.000,0.100,0.000,0,4
2480,0,0,0,118.37,7202.85,2,880.00,24.73,560.00,-0.001,-3.380,32.706,-0.000,0.101,0.000,0,4
2490,0,0,0,118.85,7233.69,2,880.00,24.70,560.33,-0.001,-3.181,32.862,-0.000,0.102,0.000,0,4
2500,0,0,0,119.35,7263.23,2,880.00,24.67,560.66,-0.001,-3.082,33.009,-0.000,0.101,0.000,0,4
2510,0,0,0,119.85,7293.35,2,880.00,24.64,560.99,-0.001,-3.044,33.152,-0.000,0.099,0.000,0,4
2520,0,0,0,120.35,7323.81,2,880.00,24.61,561.32,-0.001,-3.040,33.291,-0.000,0.097,0.000,0,4
2530,0,0,0,120.84,7354.39,2,880.00,24.58,561.66,-0.001,-3.044,33.430,-0.000,0.094,0.000,0,4
2540,0,0,0,121.34,7384.9,2,880.00,24.55,562.00,-0.001,-3.050,33.567,-0.000,0.091,0.000,0,4
2550,0,0,0,121.83,7415.24,2,880.00,24.52,562.33,-0.001,-2.997,33.708,-0.000,0.087,0.000,0,4
2560,0,0,0,122.31,7444.98,2,880.00,24.49,562.67,-0.001,-2.919,33.849,-0.000,0.083,0.000,0,4
2570,0,0,0,122.79,7474.41,2,880.00,24.47,563.01,-0.001,-2.873,33.987,-0.000,0.079,0.001,0,4
2580,0,0,0,123.27,7503.72,2,880.00,24.44,563.35,-0.002,-2.840,34.123,-0.000,0.075,0.001,0,4
2590,0,0,0,123.74,7532.78,2,880.00,24.41,563.70,-0.002,-2.651,34.270,-0.000,0.070,0.000,0,4
2600,0,0,0,124.21,7561.67,2,880.00,24.38,564.04,-0.002,-2.500,34.412,-0.000,0.067,0.000,0,4
2610,0,0,0,124.68,7590.49,2,880.00,24.36,564.39,-0.002,-2.404,34.549,-0.000,0.064,0.000,0,4
2620,0,0,0,125.14,7619.1,2,880.00,24.34,564.74,-0.002,-2.343,34.683,-0.000,0.061,-0.000,0,4
2630,0,0,0,125.6,7647.47,2,880.00,24.31,565.08,-0.001,-2.305,34.814,-0.000,0.058,-0.000,0,4
2640,0,0,0,126.06,7675.59,2,880.00,24.29,565.43,-0.001,-2.183,34.949,-0.000,0.055,-0.000,0,4
2650,0,0,0,126.52,7703.56,2,880.00,24.27,565.78,-0.001,-2.118,35.080,-0.000,0.053,-0.000,0,4
2660,0,0,0,126.97,7731.4,2,880.00,24.25,566.14,-0.001,-2.088,35.208,-0.000,0.052,-0.000,0,4
2670,0,0,0,127.42,7759.08,2,880.00,24.23,566.49,-0.001,-2.071,35.334,-0.000,0.050,-0.000,0,4
2680,0,0,0,127.87,7786.64,2,880.00,24.21,566.84,-0.001,-2.042,35.461,-0.000,0.049,-0.000,0,4
2690,0,0,0,128.31,7814.09,2,880.00,24.19,567.20,-0.001,-1.906,35.590,-0.000,0.048,-0.000,0,4
2700,0,0,0,128.74,7840.93,2,880.00,24.17,567.56,-0.001,-1.745,35.719,-0.000,0.045,-0.000,0,4
2710,0,0,0,129.18,7867.52,2,880.00,24.16,567.92,-0.001,-1.648,35.845,-0.000,0.043,-0.000,0,4
2720,0,0,0,129.62,7894.28,2,880.00,24.14,568.28,-0.001,-1.588,35.970,-0.000,0.040,-0.000,0,4
2730,0,0,0,130.05,7921.0,2,880.00,24.13,568.64,-0.001,-1.552,36.093,-0.000,0.037,-0.000,0,4
2740,0,0,0,130.49,7947.57,2,880.00,24.11,569.00,-0.001,-1.531,36.214,-0.000,0.033,0.000,0,4
2750,0,0,0,130.91,7973.9,2,880.00,24.09,569.36,-0.001,-1.386,36.338,-0.000,0.030,0.000,0,4
2760,0,0,0,131.33,7999.85,2,880.00,24.08,569.73,-0.001,-1.179,36.462,-0.000,0.027,0.000,0,4
2770,0,0,0,131.76,8025.75,2,880.00,24.07,570.09,-0.001,-1.047,36.584,-0.000,0.025,0.000,0,4
2780,0,0,0,132.17,8051.64,2,880.00,24.07,570.46,-0.001,-0.831,36.704,-0.000,0.023,0.000,0,4
2790,0,0,0,132.58,8076.87,2,880.00,24.06,570.83,-0.002,-0.711,36.822,-0.000,0.021,0.001,0,4
2800,0,0,0,133.0,8102.28,2,880.00,24.05,571.20,-0.002,-0.645,36.938,-0.000,0.018,0.001,0,4
2810,0,0,0,133.41,8127.7,2,880.00,24.04,571.57,-0.002,-0.608,37.054,-0.000,0.015,0.001,0,4
2820,0,0,0,133.82,8152.99,2,880.00,24.04,571.94,-0.002,-0.587,37.169,-0.000,0.013,0.001,0,4
2830,0,0,0,134.23,8178.11,2,880.00,24.03,572.32,-0.002,-0.575,37.283,-0.000,0.010,0.001,0,4
2840,0,0,0,134.64,8203.0,2,880.00,24.02,572.69,-0.002,-0.564,37.395,-0.000,0.007,0.001,0,4
2850,0,0,0,135.04,8227.66,2,880.00,24.02,573.07,-0.002,-0.553,37.507,-0.000,0.004,0.001,0,4
2860,0,0,0,135.44,8252.06,2,880.00,24.02,573.44,-0.002,-0.350,37.619,-0.000,0.002,0.001,0,4
2870,0,0,0,135.83,8276.34,2,880.00,24.02,573.82,-0.003,-0.218,37.730,-0.000,-0.001,0.001,0,4
2880,0,0,0,136.23,8300.58,2,880.00,24.02,574.20,-0.003,-0.146,37.840,-0.000,-0.002,0.001,0,4
2890,0,0,0,136.62,8324.72,2,880.00,24.02,574.58,-0.003,-0.105,37.949,-0.000,-0.004,0.001,0,4
2900,0,0,0,137.01,8348.74,2,880.00,24.02,574.96,-0.003,-0.080,38.058,-0.000,-0.005,0.001,0,4
2910,0,0,0,137.4,8372.67,2,880.00,24.02,575.34,-0.003,-0.067,38.167,-0.000,-0.006,0.002,0,4
2920,0,0,0,137.79,8396.51,2,880.00,24.02,575.72,-0.003,-0.061,38.275,-0.000,-0.007,0.002,0,4
2930,0,0,0,138.18,8420.28,2,880.00,24.02,576.10,-0.004,-0.060,38.383,-0.000,-0.007,0.002,0,4
2940,0,0,0,138.57,8443.99,2,880.00,24.02,576.49,-0.004,-0.062,38.491,-0.000,-0.008,0.002,0,4
2950,0,0,0,138.95,8467.63,2,880.00,24.01,576.87,-0.004,-0.065,38.599,-0.000,-0.009,0.002,0,4
2960,0,0,0,139.34,8491.24,2,880.00,24.01,577.26,-0.004,-0.048,38.706,-0.000,-0.009,0.002,0,4
2970,0,0,0,139.73,8514.84,2,880.00,24.01,577.65,-0.004,-0.026,38.813,-0.000,-0.010,0.002,0,4
2980,0,0,0,140.11,8538.44,2,880.00,24.01,578.04,-0.004,-0.016,38.920,-0.000,-0.010,0.002,0,4
2990,0,0,0,140.5,8562.0,2,880.00,24.01,578.43,-0.004,-0.013,39.027,-0.000,-0.010,0.002,0,4
3000,0,0,0,140.88,8585.55,2,880.00,24.01,578.82,-0.004,-0.014,39.134,-0.000,-0.010,0.002,0,4
3010,0,0,0,141.27,8609.1,2,880.00,24.01,579.21,-0.004,-0.017,39.241,-0.000,-0.010,0.001,0,4
3020,0,0,0,141.65,8632.64,2,880.00,24.01,579.60,-0.004,-0.020,39.348,-0.000,-0.010,0.001,0,4
3030,0,0,0,142.04,8656.2,2,880.00,24.01,579.99,-0.004,-0.022,39.456,-0.000,-0.010,0.001,0,4
3040,0,0,0,142.43,8679.77,2,880.00,24.01,580.39,-0.004,-0.023,39.563,-0.000,-0.009,0.001,0,4
3050,0,0,0,142.81,8703.37,2,880.00,24.01,580.78,-0.004,-0.024,39.670,-0.000,-0.009,0.001,0,4
3060,0,0,0,143.2,8726.98,2,880.00,24.01,581.18,-0.004,-0.024,39.777,-0.000,-0.009,0.001,0,4
3070,0,0,0,143.58,8750.62,2,880.00,24.01,581.58,-0.004,-0.024,39.885,-0.000,-0.008,0.001,0,4
3080,0,0,0,143.97,8774.29,2,880.00,24.01,581.98,-0.004,-0.022,39.992,-0.000,-0.008,0.001,0,4
3090,0,0,0,144.36,8797.99,2,880.00,24.01,582.38,-0.004,-0.020,40.100,-0.000,-0.007,0.001,0,4
3100,0,0,0,144.75,8821.71,2,880.00,24.01,582.78,-0.004,-0.017,40.208,-0.000,-0.007,0.001,0,4
3110,0,0,0,145.14,8845.48,2,880.00,24.01,583.18,-0.004,-0.014,40.316,-0.000,-0.006,0.001,0,4
3120,0,0,0,145.53,8869.27,2,880.00,24.01,583.58,-0.004,-0.009,40.424,-0.000,-0.006,0.001,0,4
3130,0,0,0,145.92,8893.1,2,880.00,24.01,583.99,-0.004,-0.004,40.532,-0.000,-0.005,0.000,0,4
3140,0,0,0,146.31,8916.96,2,880.00,24.01,584.39,-0.004,0.001,40.641,-0.000,-0.005,0.000,0,4
3150,0,0,0,146.7,8940.86,2,880.00,24.01,584.80,-0.004,0.007,40.749,-0.000,-0.004,0.000,0,4
3160,0,0,0,147.09,8964.79,2,880.00,24.01,585.21,-0.004,0.014,40.858,-0.000,-0.003,0.000,0,4
3170,0,0,0,147.48,8988.76,2,880.00,24.01,585.62,-0.004,0.021,40.967,-0.000,-0.003,0.000,0,4
3180,0,0,0,147.88,9012.76,2,880.00,24.02,586.03,-0.004,0.027,41.076,-0.000,-0.002,-0.000,0,4
3190,0,0,0,148.27,9036.8,2,880.00,24.02,586.44,-0.004,0.031,41.186,-0.000,-0.002,-0.000,0,4
3200,0,0,0,148.66,9060.87,2,880.00,24.02,586.85,-0.004,0.035,41.295,-0.000,-0.001,-0.000,0,4
3210,0,0,0,149.06,9084.97,2,880.00,24.02,587.26,-0.004,0.038,41.405,-0.000,-0.001,-0.000,0,4
3220,0,0,0,149.45,9109.1,2,880.00,24.02,587.68,-0.004,0.040,41.515,-0.000,-0.000,-0.000,0,4
3230,0,0,0,149.85,9133.25,2,880.00,24.02,588.09,-0.004,0.042,41.625,-0.000,0.000,-0.001,0,4
3240,0,0,0,150.25,9157.44,2,880.00,24.02,588.51,-0.004,0.042,41.735,-0.000,0.000,-0.001,0,4
3250,0,0,0,150.64,9181.64,2,880.00,24.02,588.93,-0.004,0.042,41.845,-0.000,0.001,-0.001,0,4
3260,0,0,0,151.04,9205.86,2,880.00,24.02,589.34,-0.004,0.042,41.955,-0.000,0.001,-0.001,0,4
3270,0,0,0,151.43,9230.1,2,880.00,24.02,589.76,-0.004,0.040,42.065,-0.000,0.001,-0.001,0,4
3280,0,0,0,151.83,9254.34,2,880.00,24.02,590.18,-0.004,0.038,42.175,-0.000,0.001,-0.001,0,4
3290,0,0,0,152.23,9278.59,2,880.00,24.02,590.61,-0.004,0.036,42.286,-0.000,0.001,-0.001,0,4
3300,0,0,0,152.63,9302.85,2,880.00,24.02,591.03,-0.004,0.033,42.396,-0.000,0.001,-0.001,0,4
3310,0,0,0,153.02,9327.1,2,880.00,24.02,591.45,-0.004,0.030,42.506,-0.000,0.001,-0.001,0,4
3320,0,0,0,153.42,9351.34,2,880.00,24.02,591.88,-0.004,0.026,42.616,-0.000,0.000,-0.001,0,4
3330,0,0,0,153.81,9375.57,2,880.00,24.02,592.31,-0.004,0.022,42.726,-0.000,0.000,-0.001,0,4
3340,0,0,0,154.21,9399.79,2,880.00,24.02,592.73,-0.004,0.018,42.836,-0.000,-0.000,-0.001,0,4
3350,0,0,0,154.61,9423.99,2,880.00,24.02,593.16,-0.004,0.013,42.946,-0.000,-0.001,-0.001,0,4
3360,0,0,0,155.0,9448.17,2,880.00,24.02,593.59,-0.004,0.009,43.056,-0.000,-0.001,-0.001,0,4
3370,0,0,0,155.4,9472.32,2,880.00,24.02,594.02,-0.005,0.005,43.166,-0.000,-0.001,-0.000,0,4
3380,0,0,0,155.79,9496.45,2,880.00,24.02,594.46,-0.005,0.001,43.275,-0.000,-0.002,-0.000,0,4
3390,0,0,0,156.19,9520.55,2,880.00,24.02,594.89,-0.005,-0.003,43.385,-0.000,-0.002,-0.000,0,4
3400,0,0,0,156.58,9544.62,2,880.00,24.02,595.32,-0.005,-0.007,43.494,-0.000,-0.003,-0.000,0,4
3410,0,0,0,156.97,9568.67,2,880.00,24.02,595.76,-0.005,-0.011,43.603,-0.000,-0.003,-0.000,0,4
3420,0,0,0,157.36,9592.68,2,880.00,24.02,596.20,-0.005,-0.014,43.712,-0.000,-0.003,-0.000,0,4
3430,0,0,0,157.76,9616.67,2,880.00,24.02,596.63,-0.005,-0.017,43.821,-0.000,-0.004,-0.000,0,4
3440,0,0,0,158.15,9640.64,2,880.00,24.02,597.07,-0.005,-0.019,43.930,-0.000,-0.004,0.000,0,4
3450,0,0,0,158.54,9664.58,2,880.00,24.02,597.51,-0.005,-0.021,44.039,-0.000,-0.004,0.000,0,4
3460,0,0,0,158.93,9688.49,2,880.00,24.02,597.95,-0.005,-0.023,44.148,-0.000,-0.005,0.000,0,4
3470,0,0,0,159.32,9712.39,2,880.00,24.02,598.39,-0.005,-0.024,44.256,-0.000,-0.005,0.000,0,4
3480,0,0,0,159.71,9736.28,2,880.00,24.02,598.84,-0.005,-0.025,44.365,-0.000,-0.005,0.000,0,4
3490,0,0,0,160.1,9760.15,2,880.00,24.02,599.28,-0.005,-0.025,44.473,-0.000,-0.005,0.000,0,4
3500,0,0,0,160.49,9784.0,2,880.00,24.02,599.73,-0.005,-0.025,44.582,-0.000,-0.005,0.000,0,4
3510,0,0,0,160.89,9807.86,2,880.00,24.02,600.17,-0.005,-0.022,44.690,-0.000,-0.005,0.000,0,4
3520,0,0,0,161.28,9831.71,2,880.00,24.02,600.62,-0.005,-0.019,44.799,-0.000,-0.005,0.000,0,4
3530,0,0,0,161.67,9855.56,2,880.00,24.02,601.07,-0.005,-0.017,44.907,-0.000,-0.005,0.000,0,4
3540,0,0,0,162.06,9879.41,2,880.00,24.02,601.52,-0.063,-0.016,45.015,-0.000,-0.005,0.000,0,4
3550,0,0,0,162.24,9903.22,3,880.00,24.02,601.97,-0.158,-0.015,45.068,-0.000,-0.005,0.000,0,4
3560,0,0,0,162.23,9903.22,3,880.00,24.02,602.42,-0.272,-0.014,45.064,-0.001,-0.005,0.000,0,4
3570,0,0,0,162.21,9903.22,3,879.99,24.02,602.87,-0.405,-0.013,45.058,-0.002,-0.005,-0.000,0,4
3580,0,0,0,162.19,7209.24,3,879.99,24.02,603.32,-0.561,-0.011,45.049,-0.004,-0.004,-0.000,0,4
3590,0,0,0,162.16,7208.04,3,879.98,24.02,603.77,-0.687,-0.010,45.040,-0.006,-0.004,-0.001,0,4
3600,0,0,0,162.14,7206.88,3,879.98,24.02,604.22,-0.811,-0.008,45.031,-0.009,-0.004,-0.002,0,4
3610,0,0,0,162.11,7205.8,3,879.97,24.02,604.67,-0.955,-0.006,45.021,-0.013,-0.003,-0.002,0,4
3620,0,0,0,162.09,7204.72,3,879.96,24.02,605.12,-1.127,-0.005,45.010,-0.018,-0.003,-0.003,0,4
3630,0,0,0,162.06,7203.64,3,879.95,24.02,605.57,-1.326,-0.001,44.997,-0.023,-0.002,-0.004,0,4
3640,0,0,0,162.04,7202.54,3,879.94,24.02,606.02,-1.494,0.002,44.987,-0.029,-0.001,-0.005,0,4
3650,0,0,0,162.03,7201.78,3,879.92,24.02,606.47,-1.652,0.006,44.978,-0.035,-0.001,-0.006,0,4
3660,0,0,0,162.02,7201.31,3,879.91,24.02,606.92,-1.814,0.009,44.970,-0.041,-0.000,-0.008,0,4
3670,0,0,0,162.02,7201.01,3,879.89,24.02,607.37,-1.979,0.034,44.962,-0.047,0.000,-0.009,0,4
3680,0,0,0,162.02,7200.8,3,879.87,24.02,607.82,-2.143,0.048,44.954,-0.053,0.001,-0.010,0,4
3690,0,0,0,162.01,7200.63,3,879.85,24.02,608.27,-2.356,0.057,44.942,-0.059,0.001,-0.011,0,4
3700,0,0,0,162.01,7200.46,3,879.83,24.02,608.72,-2.588,0.063,44.928,-0.064,0.001,-0.012,0,4
3710,0,0,0,162.01,7200.31,3,879.80,24.02,609.16,-2.818,0.066,44.914,-0.069,0.001,-0.013,0,4
3720,0,0,0,162.01,7200.18,3,879.77,24.02,609.61,-3.036,0.067,44.899,-0.073,0.002,-0.014,0,4
3730,0,0,0,162.0,7200.09,3,879.74,24.02,610.06,-3.241,0.066,44.884,-0.078,0.002,-0.015,0,4
3740,0,0,0,162.4,7200.03,3,879.71,24.02,610.51,-3.442,0.063,44.979,-0.082,0.002,-0.016,0,4
3750,0,0,0,162.79,7217.59,3,879.68,24.02,610.96,-3.630,0.059,45.075,-0.085,0.002,-0.017,0,4
3760,0,0,0,163.19,7235.17,3,879.64,24.02,611.41,-3.807,0.053,45.170,-0.089,0.002,-0.018,0,4
3770,0,0,0,163.59,7252.77,3,879.60,24.02,611.86,-3.974,0.045,45.266,-0.092,0.002,-0.019,0,4
3780,0,0,0,163.98,7270.38,3,879.56,24.03,612.32,-4.130,0.037,45.363,-0.095,0.002,-0.020,0,4
3790,0,0,0,164.38,7288.0,3,879.52,24.03,612.77,-4.278,0.029,45.460,-0.098,0.002,-0.020,0,4
3800,0,0,0,164.77,7305.62,3,879.48,24.03,613.23,-4.416,0.021,45.557,-0.100,0.001,-0.020,0,4
3810,0,0,0,165.17,7323.24,3,879.44,24.03,613.68,-4.547,0.012,45.655,-0.103,0.001,-0.021,0,4
3820,0,0,0,165.56,7340.85,3,879.39,24.03,614.14,-4.727,0.004,45.747,-0.105,0.001,-0.021,0,4
3830,0,0,0,165.96,7358.4,3,879.34,24.03,614.60,-4.937,-0.004,45.834,-0.107,0.001,-0.021,0,4
3840,0,0,0,166.34,7375.8,3,879.30,24.03,615.06,-5.160,-0.010,45.917,-0.110,0.000,-0.021,0,4
3850,0,0,0,166.72,7392.97,3,879.24,24.03,615.52,-5.395,-0.015,45.997,-0.112,-0.000,-0.020,0,4
3860,0,0,0,167.1,7409.85,3,879.19,24.03,615.98,-5.647,-0.020,46.071,-0.116,-0.000,-0.020,0,4
3870,0,0,0,167.47,7426.36,3,879.14,24.02,616.44,-5.865,-0.023,46.148,-0.120,-0.001,-0.020,0,4
3880,0,0,0,167.84,7442.88,3,879.08,24.02,616.90,-6.076,-0.026,46.225,-0.125,-0.001,-0.019,0,4
3890,0,0,0,168.21,7459.43,3,879.02,24.02,617.36,-6.304,-0.028,46.298,-0.130,-0.002,-0.019,0,4
3900,0,0,0,168.58,7475.95,3,878.96,24.02,617.83,-6.555,-0.030,46.367,-0.136,-0.002,-0.019,0,4
3910,0,0,0,168.96,7492.41,3,878.89,24.02,618.29,-6.774,-0.032,46.441,-0.142,-0.002,-0.018,0,4
3920,0,0,0,169.34,7509.18,3,878.83,24.02,618.75,-6.980,-0.034,46.518,-0.148,-0.003,-0.018,0,4
3930,0,0,0,169.73,7526.18,3,878.76,24.02,619.22,-7.191,-0.036,46.594,-0.155,-0.003,-0.017,0,4
3940,0,0,0,170.11,7543.3,3,878.69,24.02,619.69,-7.404,-0.038,46.670,-0.162,-0.004,-0.016,0,4
3950,0,0,0,170.5,7560.48,3,878.61,24.02,620.15,-7.615,-0.040,46.746,-0.168,-0.004,-0.016,0,4
3960,0,0,0,170.89,7577.68,3,878.54,24.02,620.62,-7.873,-0.041,46.812,-0.174,-0.004,-0.015,0,4
3970,0,0,0,171.28,7594.83,3,878.46,24.02,621.09,-8.151,-0.042,46.873,-0.179,-0.004,-0.015,0,4
3980,0,0,0,171.66,7611.99,3,878.38,24.02,621.56,-8.424,-0.041,46.934,-0.184,-0.005,-0.015,0,4
3990,0,0,0,172.05,7629.15,3,878.30,24.02,622.03,-8.685,-0.040,46.995,-0.189,-0.005,-0.014,0,4
4000,0,0,0,172.44,7646.34,3,878.21,24.02,622.50,-8.933,-0.040,47.058,-0.194,-0.005,-0.014,0,4
4010,0,0,0,172.82,7663.54,3,878.12,24.02,622.97,-9.166,-0.040,47.123,-0.198,-0.005,-0.014,0,4
4020,0,0,0,173.21,7680.75,3,878.03,24.02,623.44,-9.386,-0.041,47.189,-0.202,-0.005,-0.014,0,4
4030,0,0,0,173.6,7697.99,3,877.94,24.02,623.92,-9.594,-0.041,47.258,-0.205,-0.005,-0.014,0,4
4040,0,0,0,173.99,7715.23,3,877.84,24.02,624.39,-9.789,-0.042,47.328,-0.208,-0.005,-0.014,0,4
4050,0,0,0,174.37,7732.5,3,877.75,24.02,624.86,-9.974,-0.044,47.399,-0.212,-0.005,-0.014,0,4
4060,0,0,0,174.76,7749.77,3,877.65,24.02,625.34,-10.148,-0.045,47.473,-0.215,-0.005,-0.014,0,4
4070,0,0,0,175.15,7767.07,3,877.55,24.02,625.81,-10.369,-0.047,47.535,-0.217,-0.005,-0.014,0,4
4080,0,0,0,175.54,7784.31,3,877.44,24.02,626.29,-10.617,-0.047,47.590,-0.220,-0.005,-0.014,0,4
4090,0,0,0,175.92,7801.43,3,877.34,24.02,626.76,-10.876,-0.047,47.640,-0.223,-0.005,-0.014,0,4
4100,0,0,0,176.29,7818.36,3,877.23,24.02,627.24,-11.145,-0.046,47.685,-0.226,-0.004,-0.014,0,4
4110,0,0,0,176.66,7835.03,3,877.12,24.02,627.72,-11.429,-0.044,47.723,-0.230,-0.004,-0.014,0,4
4120,0,0,0,177.03,7851.38,3,877.00,24.02,628.19,-11.677,-0.043,47.768,-0.234,-0.004,-0.015,0,4
4130,0,0,0,177.4,7867.76,3,876.89,24.02,628.67,-11.919,-0.041,47.814,-0.239,-0.004,-0.015,0,4
4140,0,0,0,177.77,7884.2,3,876.77,24.02,629.15,-12.176,-0.040,47.855,-0.244,-0.004,-0.015,0,4
4150,0,0,0,178.14,7900.63,3,876.65,24.02,629.63,-12.454,-0.038,47.890,-0.250,-0.003,-0.016,0,4
4160,0,0,0,178.5,7917.04,3,876.52,24.02,630.11,-12.755,-0.029,47.916,-0.257,-0.003,-0.016,0,4
4170,0,0,0,178.88,7933.41,3,876.40,24.02,630.59,-13.023,-0.017,47.952,-0.263,-0.003,-0.017,0,4
4180,0,0,0,179.26,7950.1,3,876.27,24.02,631.07,-13.278,-0.009,47.991,-0.270,-0.003,-0.017,0,4
4190,0,0,0,179.64,7967.04,3,876.14,24.02,631.55,-13.534,-0.005,48.031,-0.277,-0.003,-0.018,0,4
4200,0,0,0,180.03,7984.12,3,876.00,24.02,632.03,-13.791,-0.003,48.070,-0.284,-0.003,-0.018,0,4
