time,input_steer,input_gas,input_brake,speed_kmh,rpm,gear,pos_x,pos_y,pos_z,vel_x,vel_y,vel_z,yaw,pitch,roll,is_sliding,wheels_contact_count
-2600,0,0,0,0.15,0.0,1,1.00,1.00,1.00,-0.012,0.037,-0.010,0.170,-0.517,-0.621,0,0
-2590,0,0,0,0.0,0.0,1,304.00,10.21,459.20,0.000,0.000,0.000,0.000,0.000,0.000,0,4
-2580,0,0,0,0.0,0.0,1,304.00,10.21,459.20,0.000,0.000,0.000,0.000,0.000,0.000,0,4
-2570,0,0,0,0.0,0.0,1,304.00,10.21,459.20,0.000,0.000,0.000,0.000,0.000,0.000,0,4
-2560,0,0,0,0.0,0.0,1,304.00,10.21,459.20,0.000,0.000,0.000,0.000,0.000,0.000,0,4
-2550,0,0,0,0.0,0.0,1,304.00,10.21,459.20,0.000,0.000,0.000,0.000,0.000,0.000,0,4
-2540,0,0,0,0.0,0.0,1,304.00,10.21,459.20,0.000,0.000,0.000,0.000,0.000,0.000,0,4
-2530,0,0,0,0.0,0.0,1,304.00,10.21,459.20,0.000,0.000,0.000,0.000,0.000,0.000,0,4
-2520,0,0,0,0.0,0.0,1,304.00,10.21,459.20,0.000,0.000,0.000,0.000,0.000,0.000,0,4
-2510,0,0,0,0.0,0.0,1,304.00,10.21,459.20,0.000,0.000,0.000,0.000,0.000,0.000,0,4
-2500,0,0,0,0.0,0.0,1,304.00,10.21,459.20,0.000,0.000,0.000,0.000,0.000,0.000,0,4
-2490,0,0,0,0.0,0.0,1,304.00,10.21,459.20,0.000,0.000,0.000,0.000,0.000,0.000,0,4
-2480,0,0,0,0.0,0.0,1,304.00,10.21,459.20,0.000,0.000,0.000,0.000,0.000,0.000,0,4
-2470,0,0,0,0.0,0.0,1,304.00,10.21,459.20,0.000,0.000,0.000,0.000,0.000,0.000,0,4
-2460,0,0,0,0.0,0.0,1,304.00,10.21,459.20,0.000,0.000,0.000,0.000,0.000,0.000,0,4
-2450,0,0,0,0.0,0.0,1,304.00,10.21,459.20,0.000,0.000,0.000,0.000,0.000,0.000,0,4
-2440,0,0,0,0.0,0.0,1,304.00,10.21,459.20,0.000,0.000,0.000,0.000,0.000,0.000,0,4
-2430,0,0,0,0.0,0.0,1,304.00,10.21,459.20,0.000,0.000,0.000,0.000,0.000,0.000,0,4
-2420,0,0,0,0.0,0.0,1,304.00,10.21,459.20,0.000,0.000,0.000,0.000,0.000,0.000,0,4
-2410,0,0,0,0.0,0.0,1,304.00,10.21,459.20,0.000,0.000,0.000,0.000,0.000,0.000,0,4
-2400,0,0,0,0.0,0.0,1,304.00,10.21,459.20,0.000,0.000,0.000,0.000,0.000,0.000,0,4
-2390,0,0,0,0.0,0.0,1,304.00,10.21,459.20,0.000,0.000,0.000,0.000,0.000,0.000,0,4
-2380,0,0,0,0.0,0.0,1,304.00,10.21,459.20,0.000,0.000,0.000,0.000,0.000,0.000,0,4
-2370,0,0,0,0.0,0.0,1,304.00,10.21,459.20,0.000,0.000,0.000,0.000,0.000,0.000,0,4
-2360,0,0,0,0.0,0.0,1,304.00,10.21,459.20,0.000,0.000,0.000,0.000,0.000,0.000,0,4
-2350,0,0,0,0.0,0.0,1,304.00,10.21,459.20,0.000,0.000,0.000,0.000,0.000,0.000,0,4
-2340,0,0,0,0.0,0.0,1,304.00,10.21,459.20,0.000,0.000,0.000,0.000,0.000,0.000,0,4
-2330,0,0,0,0.0,0.0,1,304.00,10.21,459.20,0.000,0.000,0.000,0.000,0.000,0.000,0,4
-2320,0,0,0,0.0,0.0,1,304.00,10.21,459.20,0.000,0.000,0.000,0.000,0.000,0.000,0,4
-2310,0,0,0,0.0,0.0,1,304.00,10.21,459.20,0.000,0.000,0.000,0.000,0.000,0.000,0,4
-2300,0,0,0,0.0,0.0,1,304.00,10.21,459.20,0.000,0.000,0.000,0.000,0.000,0.000,0,4
-2290,0,0,0,0.0,0.0,1,304.00,10.21,459.20,0.000,0.000,0.000,0.000,0.000,0.000,0,4
-2280,0,0,0,0.0,0.0,1,304.00,10.21,459.20,0.000,0.000,0.000,0.000,0.000,0.000,0,4
-2270,0,0,0,0.0,0.0,1,304.00,10.21,459.20,0.000,0.000,0.000,0.000,0.000,0.000,0,4
-2260,0,0,0,0.0,0.0,1,304.00,10.21,459.20,0.000,0.000,0.000,0.000,0.000,0.000,0,4
-2250,0,0,0,0.0,0.0,1,304.00,10.21,459.20,0.000,0.000,0.000,0.000,0.000,0.000,0,4
-2240,0,0,0,0.0,0.0,1,304.00,10.21,459.20,0.000,0.000,0.000,0.000,0.000,0.000,0,4
-2230,0,0,0,0.0,0.0,1,304.00,10.21,459.20,0.000,0.000,0.000,0.000,0.000,0.000,0,4
-2220,0,0,0,0.0,0.0,1,304.00,10.21,459.20,0.000,0.000,0.000,0.000,0.000,0.000,0,4
-2210,0,0,0,0.0,0.0,1,304.00,10.21,459.20,0.000,0.000,0.000,0.000,0.000,0.000,0,4
-2200,0,0,0,0.0,0.0,1,304.00,10.21,459.20,0.000,0.000,0.000,0.000,0.000,0.000,0,4
-2190,0,0,0,0.0,0.0,1,304.00,10.21,459.20,0.000,0.000,0.000,0.000,0.000,0.000,0,4
-2180,0,0,0,0.0,0.0,1,304.00,10.21,459.20,0.000,0.000,0.000,0.000,0.000,0.000,0,4
-2170,0,0,0,0.0,0.0,1,304.00,10.21,459.20,0.000,0.000,0.000,0.000,0.000,0.000,0,4
-2160,0,0,0,0.0,0.0,1,304.00,10.21,459.20,0.000,0.000,0.000,0.000,0.000,0.000,0,4
-2150,0,0,0,0.0,0.0,1,304.00,10.21,459.20,0.000,0.000,0.000,0.000,0.000,0.000,0,4
-2140,0,0,0,0.0,0.0,1,304.00,10.21,459.20,0.000,0.000,0.000,0.000,0.000,0.000,0,4
-2130,0,0,0,0.0,0.0,1,304.00,10.21,459.20,0.000,0.000,0.000,0.000,0.000,0.000,0,4
-2120,0,0,0,0.0,0.0,1,304.00,10.21,459.20,0.000,0.000,0.000,0.000,0.000,0.000,0,4
-2110,0,0,0,0.0,0.0,1,304.00,10.21,459.20,0.000,0.000,0.000,0.000,0.000,0.000,0,4
-2100,0,0,0,0.0,0.0,1,304.00,10.21,459.20,0.000,0.000,0.000,0.000,0.000,0.000,0,4
-2090,0,0,0,0.0,0.0,1,304.00,10.21,459.20,0.000,0.000,0.000,0.000,0.000,0.000,0,4
-2080,0,0,0,0.0,0.0,1,304.00,10.21,459.20,0.000,0.000,0.000,0.000,0.000,0.000,0,4
-2070,0,0,0,0.0,0.0,1,304.00,10.21,459.20,0.000,0.000,0.000,0.000,0.000,0.000,0,4
-2060,0,0,0,0.0,0.0,1,304.00,10.21,459.20,0.000,0.000,0.000,0.000,0.000,0.000,0,4
-2050,0,0,0,0.0,0.0,1,304.00,10.21,459.20,0.000,0.000,0.000,0.000,0.000,0.000,0,4
-2040,0,0,0,0.0,0.0,1,304.00,10.21,459.20,0.000,0.000,0.000,0.000,0.000,0.000,0,4
-2030,0,0,0,0.0,0.0,1,304.00,10.21,459.20,0.000,0.000,0.000,0.000,0.000,0.000,0,4
-2020,0,0,0,0.0,0.0,1,304.00,10.21,459.20,0.000,0.000,0.000,0.000,0.000,0.000,0,4
-2010,0,0,0,0.0,0.0,1,304.00,10.21,459.20,0.000,0.000,0.000,0.000,0.000,0.000,0,4
-2000,0,0,0,0.0,0.0,1,304.00,10.21,459.20,0.000,0.000,0.000,0.000,0.000,0.000,0,4
-1990,0,0,0,0.0,0.0,1,304.00,10.21,459.20,0.000,0.000,0.000,0.000,0.000,0.000,0,4
-1980,0,0,0,0.0,0.0,1,304.00,10.21,459.20,0.000,0.000,0.000,0.000,0.000,0.000,0,4
-1970,0,0,0,0.0,0.0,1,304.00,10.21,459.20,0.000,0.000,0.000,0.000,0.000,0.000,0,4
-1960,0,0,0,0.0,0.0,1,304.00,10.21,459.20,0.000,0.000,0.000,0.000,0.000,0.000,0,4
-1950,0,0,0,0.0,0.0,1,304.00,10.21,459.20,0.000,0.000,0.000,0.000,0.000,0.000,0,4
-1940,0,0,0,0.0,0.0,1,304.00,10.21,459.20,0.000,0.000,0.000,0.000,0.000,0.000,0,4
-1930,0,0,0,0.0,0.0,1,304.00,10.21,459.20,0.000,0.000,0.000,0.000,0.000,0.000,0,4
-1920,0,0,0,0.0,0.0,1,304.00,10.21,459.20,0.000,0.000,0.000,0.000,0.000,0.000,0,4
-1910,0,0,0,0.0,0.0,1,304.00,10.21,459.20,0.000,0.000,0.000,0.000,0.000,0.000,0,4
-1900,0,0,0,0.0,0.0,1,304.00,10.21,459.20,0.000,0.000,0.000,0.000,0.000,0.000,0,4
-1890,0,0,0,0.0,0.0,1,304.00,10.21,459.20,0.000,0.000,0.000,0.000,0.000,0.000,0,4
-1880,0,0,0,0.0,0.0,1,304.00,10.21,459.20,0.000,0.000,0.000,0.000,0.000,0.000,0,4
-1870,0,0,0,0.0,0.0,1,304.00,10.21,459.20,0.000,0.000,0.000,0.000,0.000,0.000,0,4
-1860,0,0,0,0.0,0.0,1,304.00,10.21,459.20,0.000,0.000,0.000,0.000,0.000,0.000,0,4
-1850,0,0,0,0.0,0.0,1,304.00,10.21,459.20,0.000,0.000,0.000,0.000,0.000,0.000,0,4
-1840,0,0,0,0.0,0.0,1,304.00,10.21,459.20,0.000,0.000,0.000,0.000,0.000,0.000,0,4
-1830,0,0,0,0.0,0.0,1,304.00,10.21,459.20,0.000,0.000,0.000,0.000,0.000,0.000,0,4
-1820,0,0,0,0.0,0.0,1,304.00,10.21,459.20,0.000,0.000,0.000,0.000,0.000,0.000,0,4
-1810,0,0,0,0.0,0.0,1,304.00,10.21,459.20,0.000,0.000,0.000,0.000,0.000,0.000,0,4
-1800,0,0,0,0.0,0.0,1,304.00,10.21,459.20,0.000,0.000,0.000,0.000,0.000,0.000,0,4
-1790,0,0,0,0.0,0.0,1,304.00,10.21,459.20,0.000,0.000,0.000,0.000,0.000,0.000,0,4
-1780,0,0,0,0.0,0.0,1,304.00,10.21,459.20,0.000,0.000,0.000,0.000,0.000,0.000,0,4
-1770,0,0,0,0.0,0.0,1,304.00,10.21,459.20,0.000,0.000,0.000,0.000,0.000,0.000,0,4
-1760,0,0,0,0.0,0.0,1,304.00,10.21,459.20,0.000,0.000,0.000,0.000,0.000,0.000,0,4
-1750,0,0,0,0.0,0.0,1,304.00,10.21,459.20,0.000,0.000,0.000,0.000,0.000,0.000,0,4
-1740,0,0,0,0.0,0.0,1,304.00,10.21,459.20,0.000,0.000,0.000,0.000,0.000,0.000,0,4
-1730,0,0,0,0.0,0.0,1,304.00,10.21,459.20,0.000,0.000,0.000,0.000,0.000,0.000,0,4
-1720,0,0,0,0.0,0.0,1,304.00,10.21,459.20,0.000,0.000,0.000,0.000,0.000,0.000,0,4
-1710,0,0,0,0.0,0.0,1,304.00,10.21,459.20,0.000,0.000,0.000,0.000,0.000,0.000,0,4
-1700,0,0,0,0.0,0.0,1,304.00,10.21,459.20,0.000,0.000,0.000,0.000,0.000,0.000,0,4
-1690,0,0,0,0.0,0.0,1,304.00,10.21,459.20,0.000,0.000,0.000,0.000,0.000,0.000,0,4
-1680,0,0,0,0.0,0.0,1,304.00,10.21,459.20,0.000,0.000,0.000,0.000,0.000,0.000,0,4
-1670,0,0,0,0.0,0.0,1,304.00,10.21,459.20,0.000,0.000,0.000,0.000,0.000,0.000,0,4
-1660,0,0,0,0.0,0.0,1,304.00,10.21,459.20,0.000,0.000,0.000,0.000,0.000,0.000,0,4
-1650,0,0,0,0.0,0.0,1,304.00,10.21,459.20,0.000,0.000,0.000,0.000,0.000,0.000,0,4
-1640,0,0,0,0.0,0.0,1,304.00,10.21,459.20,0.000,0.000,0.000,0.000,0.000,0.000,0,4
-1630,0,0,0,0.0,0.0,1,304.00,10.21,459.20,0.000,0.000,0.000,0.000,0.000,0.000,0,4
-1620,0,0,0,0.0,0.0,1,304.00,10.21,459.20,0.000,0.000,0.000,0.000,0.000,0.000,0,4
-1610,0,0,0,0.0,0.0,1,304.00,10.21,459.20,0.000,0.000,0.000,0.000,0.000,0.000,0,4
-1600,0,0,0,0.0,0.0,1,304.00,10.21,459.20,0.000,0.000,0.000,0.000,0.000,0.000,0,4
-1590,0,0,0,0.0,0.0,1,304.00,10.21,459.20,0.000,0.000,0.000,0.000,0.000,0.000,0,4
-1580,0,0,0,0.0,0.0,1,304.00,10.21,459.20,0.000,0.000,0.000,0.000,0.000,0.000,0,4
-1570,0,0,0,0.0,0.0,1,304.00,10.21,459.20,0.000,0.000,0.000,0.000,0.000,0.000,0,4
-1560,0,0,0,0.0,0.0,1,304.00,10.21,459.20,0.000,0.000,0.000,0.000,0.000,0.000,0,4
-1550,0,0,0,0.0,0.0,1,304.00,10.21,459.20,0.000,0.000,0.000,0.000,0.000,0.000,0,4
-1540,0,0,0,0.0,0.0,1,304.00,10.21,459.20,0.000,0.000,0.000,0.000,0.000,0.000,0,4
-1530,0,0,0,0.0,0.0,1,304.00,10.21,459.20,0.000,0.000,0.000,0.000,0.000,0.000,0,4
-1520,0,0,0,0.0,0.0,1,304.00,10.21,459.20,0.000,0.000,0.000,0.000,0.000,0.000,0,4
-1510,0,0,0,0.0,0.0,1,304.00,10.21,459.20,0.000,0.000,0.000,0.000,0.000,0.000,0,4
-1500,0,0,0,0.0,0.0,1,304.00,10.21,459.20,0.000,0.000,0.000,0.000,0.000,0.000,0,4
-1490,0,0,0,0.0,0.0,1,304.00,10.21,459.20,0.000,0.000,0.000,0.000,0.000,0.000,0,4
-1480,0,0,0,0.0,0.0,1,304.00,10.21,459.20,0.000,0.000,0.000,0.000,0.000,0.000,0,4
-1470,0,0,0,0.0,0.0,1,304.00,10.21,459.20,0.000,0.000,0.000,0.000,0.000,0.000,0,4
-1460,0,0,0,0.0,0.0,1,304.00,10.21,459.20,0.000,0.000,0.000,0.000,0.000,0.000,0,4
-1450,0,0,0,0.0,0.0,1,304.00,10.21,459.20,0.000,0.000,0.000,0.000,0.000,0.000,0,4
-1440,0,0,0,0.0,0.0,1,304.00,10.21,459.20,0.000,0.000,0.000,0.000,0.000,0.000,0,4
-1430,0,0,0,0.0,0.0,1,304.00,10.21,459.20,0.000,0.000,0.000,0.000,0.000,0.000,0,4
-1420,0,0,0,0.0,0.0,1,304.00,10.21,459.20,0.000,0.000,0.000,0.000,0.000,0.000,0,4
-1410,0,0,0,0.0,0.0,1,304.00,10.21,459.20,0.000,0.000,0.000,0.000,0.000,0.000,0,4
-1400,0,0,0,0.0,0.0,1,304.00,10.21,459.20,0.000,0.000,0.000,0.000,0.000,0.000,0,4
-1390,0,0,0,0.0,0.0,1,304.00,10.21,459.20,0.000,0.000,0.000,0.000,0.000,0.000,0,4
-1380,0,0,0,0.0,0.0,1,304.00,10.21,459.20,0.000,0.000,0.000,0.000,0.000,0.000,0,4
-1370,0,0,0,0.0,0.0,1,304.00,10.21,459.20,0.000,0.000,0.000,0.000,0.000,0.000,0,4
-1360,0,0,0,0.0,0.0,1,304.00,10.21,459.20,0.000,0.000,0.000,0.000,0.000,0.000,0,4
-1350,0,0,0,0.0,0.0,1,304.00,10.21,459.20,0.000,0.000,0.000,0.000,0.000,0.000,0,4
-1340,0,0,0,0.0,0.0,1,304.00,10.21,459.20,0.000,0.000,0.000,0.000,0.000,0.000,0,4
-1330,0,0,0,0.0,0.0,1,304.00,10.21,459.20,0.000,0.000,0.000,0.000,0.000,0.000,0,4
-1320,0,0,0,0.0,0.0,1,304.00,10.21,459.20,0.000,0.000,0.000,0.000,0.000,0.000,0,4
-1310,0,0,0,0.0,0.0,1,304.00,10.21,459.20,0.000,0.000,0.000,0.000,0.000,0.000,0,4
-1300,0,0,0,0.0,0.0,1,304.00,10.21,459.20,0.000,0.000,0.000,0.000,0.000,0.000,0,4
-1290,0,0,0,0.0,0.0,1,304.00,10.21,459.20,0.000,0.000,0.000,0.000,0.000,0.000,0,4
-1280,0,0,0,0.0,0.0,1,304.00,10.21,459.20,0.000,0.000,0.000,0.000,0.000,0.000,0,4
-1270,0,0,0,0.0,0.0,1,304.00,10.21,459.20,0.000,0.000,0.000,0.000,0.000,0.000,0,4
-1260,0,0,0,0.0,0.0,1,304.00,10.21,459.20,0.000,0.000,0.000,0.000,0.000,0.000,0,4
-1250,0,0,0,0.0,0.0,1,304.00,10.21,459.20,0.000,0.000,0.000,0.000,0.000,0.000,0,4
-1240,0,0,0,0.0,0.0,1,304.00,10.21,459.20,0.000,0.000,0.000,0.000,0.000,0.000,0,4
-1230,0,0,0,0.0,0.0,1,304.00,10.21,459.20,0.000,0.000,0.000,0.000,0.000,0.000,0,4
-1220,0,0,0,0.0,0.0,1,304.00,10.21,459.20,0.000,0.000,0.000,0.000,0.000,0.000,0,4
-1210,0,0,0,0.0,0.0,1,304.00,10.21,459.20,0.000,0.000,0.000,0.000,0.000,0.000,0,4
-1200,0,0,0,0.0,0.0,1,304.00,10.21,459.20,0.000,0.000,0.000,0.000,0.000,0.000,0,4
-1190,0,0,0,0.0,0.0,1,304.00,10.21,459.20,0.000,0.000,0.000,0.000,0.000,0.000,0,4
-1180,0,0,0,0.0,0.0,1,304.00,10.21,459.20,0.000,0.000,0.000,0.000,0.000,0.000,0,4
-1170,0,0,0,0.0,0.0,1,304.00,10.21,459.20,0.000,0.000,0.000,0.000,0.000,0.000,0,4
-1160,0,0,0,0.0,0.0,1,304.00,10.21,459.20,0.000,0.000,0.000,0.000,0.000,0.000,0,4
-1150,0,0,0,0.0,0.0,1,304.00,10.21,459.20,0.000,0.000,0.000,0.000,0.000,0.000,0,4
-1140,0,0,0,0.0,0.0,1,304.00,10.21,459.20,0.000,0.000,0.000,0.000,0.000,0.000,0,4
-1130,0,0,0,0.0,0.0,1,304.00,10.21,459.20,0.000,0.000,0.000,0.000,0.000,0.000,0,4
-1120,0,0,0,0.0,0.0,1,304.00,10.21,459.20,0.000,0.000,0.000,0.000,0.000,0.000,0,4
-1110,0,0,0,0.0,0.0,1,304.00,10.21,459.20,0.000,0.000,0.000,0.000,0.000,0.000,0,4
-1100,0,0,0,0.0,0.0,1,304.00,10.21,459.20,0.000,0.000,0.000,0.000,0.000,0.000,0,4
-1090,0,0,0,0.0,0.0,1,304.00,10.21,459.20,0.000,0.000,0.000,0.000,0.000,0.000,0,4
-1080,0,0,0,0.0,0.0,1,304.00,10.21,459.20,0.000,0.000,0.000,0.000,0.000,0.000,0,4
-1070,0,0,0,0.0,0.0,1,304.00,10.21,459.20,0.000,0.000,0.000,0.000,0.000,0.000,0,4
-1060,0,0,0,0.0,0.0,1,304.00,10.21,459.20,0.000,0.000,0.000,0.000,0.000,0.000,0,4
-1050,0,0,0,0.0,0.0,1,304.00,10.21,459.20,0.000,0.000,0.000,0.000,0.000,0.000,0,4
-1040,0,0,0,0.0,0.0,1,304.00,10.21,459.20,0.000,0.000,0.000,0.000,0.000,0.000,0,4
-1030,0,0,0,0.0,0.0,1,304.00,10.21,459.20,0.000,0.000,0.000,0.000,0.000,0.000,0,4
-1020,0,0,0,0.0,0.0,1,304.00,10.21,459.20,0.000,0.000,0.000,0.000,0.000,0.000,0,4
-1010,0,0,0,0.0,0.0,1,304.00,10.21,459.20,0.000,0.000,0.000,0.000,0.000,0.000,0,4
-1000,0,0,0,0.0,0.0,1,304.00,10.21,459.20,0.000,0.000,0.000,0.000,0.000,0.000,0,4
-990,0,0,0,0.0,0.0,1,304.00,10.21,459.20,0.000,0.000,0.000,0.000,0.000,0.000,0,4
-980,0,0,0,0.0,0.0,1,304.00,10.21,459.20,0.000,0.000,0.000,0.000,0.000,0.000,0,4
-970,0,0,0,0.0,0.0,1,304.00,10.21,459.20,0.000,0.000,0.000,0.000,0.000,0.000,0,4
-960,0,0,0,0.0,0.0,1,304.00,10.21,459.20,0.000,0.000,0.000,0.000,0.000,0.000,0,4
-950,0,0,0,0.0,0.0,1,304.00,10.21,459.20,0.000,0.000,0.000,0.000,0.000,0.000,0,4
-940,0,0,0,0.0,0.0,1,304.00,10.21,459.20,0.000,0.000,0.000,0.000,0.000,0.000,0,4
-930,0,0,0,0.0,0.0,1,304.00,10.21,459.20,0.000,0.000,0.000,0.000,0.000,0.000,0,4
-920,0,0,0,0.0,0.0,1,304.00,10.21,459.20,0.000,0.000,0.000,0.000,0.000,0.000,0,4
-910,0,0,0,0.0,0.0,1,304.00,10.21,459.20,0.000,0.000,0.000,0.000,0.000,0.000,0,4
-900,0,0,0,0.0,0.0,1,304.00,10.21,459.20,0.000,0.000,0.000,0.000,0.000,0.000,0,4
-890,0,0,0,0.0,0.0,1,304.00,10.21,459.20,0.000,0.000,0.000,0.000,0.000,0.000,0,4
-880,0,0,0,0.0,0.0,1,304.00,10.21,459.20,0.000,0.000,0.000,0.000,0.000,0.000,0,4
-870,0,0,0,0.0,0.0,1,304.00,10.21,459.20,0.000,0.000,0.000,0.000,0.000,0.000,0,4
-860,0,0,0,0.0,0.0,1,304.00,10.21,459.20,0.000,0.000,0.000,0.000,0.000,0.000,0,4
-850,0,0,0,0.0,0.0,1,304.00,10.21,459.20,0.000,0.000,0.000,0.000,0.000,0.000,0,4
-840,0,0,0,0.0,0.0,1,304.00,10.21,459.20,0.000,0.000,0.000,0.000,0.000,0.000,0,4
-830,0,0,0,0.0,0.0,1,304.00,10.21,459.20,0.000,0.000,0.000,0.000,0.000,0.000,0,4
-820,0,0,0,0.0,0.0,1,304.00,10.21,459.20,0.000,0.000,0.000,0.000,0.000,0.000,0,4
-810,0,0,0,0.0,0.0,1,304.00,10.21,459.20,0.000,0.000,0.000,0.000,0.000,0.000,0,4
-800,0,0,0,0.0,0.0,1,304.00,10.21,459.20,0.000,0.000,0.000,0.000,0.000,0.000,0,4
-790,0,0,0,0.0,0.0,1,304.00,10.21,459.20,0.000,0.000,0.000,0.000,0.000,0.000,0,4
-780,0,0,0,0.0,0.0,1,304.00,10.21,459.20,0.000,0.000,0.000,0.000,0.000,0.000,0,4
-770,0,0,0,0.0,0.0,1,304.00,10.21,459.20,0.000,0.000,0.000,0.000,0.000,0.000,0,4
-760,0,0,0,0.0,0.0,1,304.00,10.21,459.20,0.000,0.000,0.000,0.000,0.000,0.000,0,4
-750,0,0,0,0.0,0.0,1,304.00,10.21,459.20,0.000,0.000,0.000,0.000,0.000,0.000,0,4
-740,0,0,0,0.0,0.0,1,304.00,10.21,459.20,0.000,0.000,0.000,0.000,0.000,0.000,0,4
-730,0,0,0,0.0,0.0,1,304.00,10.21,459.20,0.000,0.000,0.000,0.000,0.000,0.000,0,4
-720,0,0,0,0.0,0.0,1,304.00,10.21,459.20,0.000,0.000,0.000,0.000,0.000,0.000,0,4
-710,0,0,0,0.0,0.0,1,304.00,10.21,459.20,0.000,0.000,0.000,0.000,0.000,0.000,0,4
-700,0,0,0,0.0,0.0,1,304.00,10.21,459.20,0.000,0.000,0.000,0.000,0.000,0.000,0,4
-690,0,0,0,0.0,0.0,1,304.00,10.21,459.20,0.000,0.000,0.000,0.000,0.000,0.000,0,4
-680,0,0,0,0.0,0.0,1,304.00,10.21,459.20,0.000,0.000,0.000,0.000,0.000,0.000,0,4
-670,0,0,0,0.0,0.0,1,304.00,10.21,459.20,0.000,0.000,0.000,0.000,0.000,0.000,0,4
-660,0,0,0,0.0,0.0,1,304.00,10.21,459.20,0.000,0.000,0.000,0.000,0.000,0.000,0,4
-650,0,0,0,0.0,0.0,1,304.00,10.21,459.20,0.000,0.000,0.000,0.000,0.000,0.000,0,4
-640,0,0,0,0.0,0.0,1,304.00,10.21,459.20,0.000,0.000,0.000,0.000,0.000,0.000,0,4
-630,0,0,0,0.0,0.0,1,304.00,10.21,459.20,0.000,0.000,0.000,0.000,0.000,0.000,0,4
-620,0,0,0,0.0,0.0,1,304.00,10.21,459.20,0.000,0.000,0.000,0.000,0.000,0.000,0,4
-610,0,0,0,0.0,0.0,1,304.00,10.21,459.20,0.000,0.000,0.000,0.000,0.000,0.000,0,4
-600,0,0,0,0.0,0.0,1,304.00,10.21,459.20,0.000,0.000,0.000,0.000,0.000,0.000,0,4
-590,0,0,0,0.0,0.0,1,304.00,10.21,459.20,0.000,0.000,0.000,0.000,0.000,0.000,0,4
-580,0,0,0,0.0,0.0,1,304.00,10.21,459.20,0.000,0.000,0.000,0.000,0.000,0.000,0,4
-570,0,0,0,0.0,0.0,1,304.00,10.21,459.20,0.000,0.000,0.000,0.000,0.000,0.000,0,4
-560,0,0,0,0.0,0.0,1,304.00,10.21,459.20,0.000,0.000,0.000,0.000,0.000,0.000,0,4
-550,0,0,0,0.0,0.0,1,304.00,10.21,459.20,0.000,0.000,0.000,0.000,0.000,0.000,0,4
-540,0,0,0,0.0,0.0,1,304.00,10.21,459.20,0.000,0.000,0.000,0.000,0.000,0.000,0,4
-530,0,0,0,0.0,0.0,1,304.00,10.21,459.20,0.000,0.000,0.000,0.000,0.000,0.000,0,4
-520,0,0,0,0.0,0.0,1,304.00,10.21,459.20,0.000,0.000,0.000,0.000,0.000,0.000,0,4
-510,0,0,0,0.0,0.0,1,304.00,10.21,459.20,0.000,0.000,0.000,0.000,0.000,0.000,0,4
-500,0,0,0,0.0,0.0,1,304.00,10.21,459.20,0.000,0.000,0.000,0.000,0.000,0.000,0,4
-490,0,0,0,0.0,0.0,1,304.00,10.21,459.20,0.000,0.000,0.000,0.000,0.000,0.000,0,4
-480,0,0,0,0.0,0.0,1,304.00,10.21,459.20,0.000,0.000,0.000,0.000,0.000,0.000,0,4
-470,0,0,0,0.0,0.0,1,304.00,10.21,459.20,0.000,0.000,0.000,0.000,0.000,0.000,0,4
-460,0,0,0,0.0,0.0,1,304.00,10.21,459.20,0.000,0.000,0.000,0.000,0.000,0.000,0,4
-450,0,0,0,0.0,0.0,1,304.00,10.21,459.20,0.000,0.000,0.000,0.000,0.000,0.000,0,4
-440,0,0,0,0.0,0.0,1,304.00,10.21,459.20,0.000,0.000,0.000,0.000,0.000,0.000,0,4
-430,0,0,0,0.0,0.0,1,304.00,10.21,459.20,0.000,0.000,0.000,0.000,0.000,0.000,0,4
-420,0,0,0,0.0,0.0,1,304.00,10.21,459.20,0.000,0.000,0.000,0.000,0.000,0.000,0,4
-410,0,0,0,0.0,0.0,1,304.00,10.21,459.20,0.000,0.000,0.000,0.000,0.000,0.000,0,4
-400,0,0,0,0.0,0.0,1,304.00,10.21,459.20,0.000,0.000,0.000,0.000,0.000,0.000,0,4
-390,0,0,0,0.0,0.0,1,304.00,10.21,459.20,0.000,0.000,0.000,0.000,0.000,0.000,0,4
-380,0,0,0,0.0,0.0,1,304.00,10.21,459.20,0.000,0.000,0.000,0.000,0.000,0.000,0,4
-370,0,0,0,0.0,0.0,1,304.00,10.21,459.20,0.000,0.000,0.000,0.000,0.000,0.000,0,4
-360,0,0,0,0.0,0.0,1,304.00,10.21,459.20,0.000,0.000,0.000,0.000,0.000,0.000,0,4
-350,0,0,0,0.0,0.0,1,304.00,10.21,459.20,0.000,0.000,0.000,0.000,0.000,0.000,0,4
-340,0,0,0,0.0,0.0,1,304.00,10.21,459.20,0.000,0.000,0.000,0.000,0.000,0.000,0,4
-330,0,0,0,0.0,0.0,1,304.00,10.21,459.20,0.000,0.000,0.000,0.000,0.000,0.000,0,4
-320,0,0,0,0.0,0.0,1,304.00,10.21,459.20,0.000,0.000,0.000,0.000,0.000,0.000,0,4
-310,0,0,0,0.0,0.0,1,304.00,10.21,459.20,0.000,0.000,0.000,0.000,0.000,0.000,0,4
-300,0,0,0,0.0,0.0,1,304.00,10.21,459.20,0.000,0.000,0.000,0.000,0.000,0.000,0,4
-290,0,0,0,0.0,0.0,1,304.00,10.21,459.20,0.000,0.000,0.000,0.000,0.000,0.000,0,4
-280,0,0,0,0.0,0.0,1,304.00,10.21,459.20,0.000,0.000,0.000,0.000,0.000,0.000,0,4
-270,0,0,0,0.0,0.0,1,304.00,10.21,459.20,0.000,0.000,0.000,0.000,0.000,0.000,0,4
-260,0,0,0,0.0,0.0,1,304.00,10.21,459.20,0.000,0.000,0.000,0.000,0.000,0.000,0,4
-250,0,0,0,0.0,0.0,1,304.00,10.21,459.20,0.000,0.000,0.000,0.000,0.000,0.000,0,4
-240,0,0,0,0.0,0.0,1,304.00,10.21,459.20,0.000,0.000,0.000,0.000,0.000,0.000,0,4
-230,0,0,0,0.0,0.0,1,304.00,10.21,459.20,0.000,0.000,0.000,0.000,0.000,0.000,0,4
-220,0,0,0,0.0,0.0,1,304.00,10.21,459.20,0.000,0.000,0.000,0.000,0.000,0.000,0,4
-210,0,0,0,0.0,0.0,1,304.00,10.21,459.20,0.000,0.000,0.000,0.000,0.000,0.000,0,4
-200,0,0,0,0.0,0.0,1,304.00,10.21,459.20,0.000,0.000,0.000,0.000,0.000,0.000,0,4
-190,0,0,0,0.0,0.0,1,304.00,10.21,459.20,0.000,0.000,0.000,0.000,0.000,0.000,0,4
-180,0,0,0,0.0,0.0,1,304.00,10.21,459.20,0.000,0.000,0.000,0.000,0.000,0.000,0,4
-170,0,0,0,0.0,0.0,1,304.00,10.21,459.20,0.000,0.000,0.000,0.000,0.000,0.000,0,4
-160,0,0,0,0.0,0.0,1,304.00,10.21,459.20,0.000,0.000,0.000,0.000,0.000,0.000,0,4
-150,0,0,0,0.0,0.0,1,304.00,10.21,459.20,0.000,0.000,0.000,0.000,0.000,0.000,0,4
-140,0,0,0,0.0,0.0,1,304.00,10.21,459.20,0.000,0.000,0.000,0.000,0.000,0.000,0,4
-130,0,0,0,0.0,0.0,1,304.00,10.21,459.20,0.000,0.000,0.000,0.000,0.000,0.000,0,4
-120,0,0,0,0.0,0.0,1,304.00,10.21,459.20,0.000,0.000,0.000,0.000,0.000,0.000,0,4
-110,0,0,0,0.0,0.0,1,304.00,10.21,459.20,0.000,0.000,0.000,0.000,0.000,0.000,0,4
-100,0,0,0,0.0,0.0,1,304.00,10.21,459.20,0.000,0.000,0.000,0.000,0.000,0.000,0,4
-90,0,0,0,0.0,0.0,1,304.00,10.21,459.20,0.000,0.000,0.000,0.000,0.000,0.000,0,4
-80,0,0,0,0.0,0.0,1,304.00,10.21,459.20,0.000,0.000,0.000,0.000,0.000,0.000,0,4
-70,0,0,0,0.0,0.0,1,304.00,10.21,459.20,0.000,0.000,0.000,0.000,0.000,0.000,0,4
-60,0,0,0,0.0,0.0,1,304.00,10.21,459.20,0.000,0.000,0.000,0.000,0.000,0.000,0,4
-50,0,0,0,0.0,0.0,1,304.00,10.21,459.20,0.000,0.000,0.000,0.000,0.000,0.000,0,4
-40,0,0,0,0.0,0.0,1,304.00,10.21,459.20,0.000,0.000,0.000,0.000,0.000,0.000,0,4
-30,0,0,0,0.0,0.0,1,304.00,10.21,459.20,0.000,0.000,0.000,0.000,0.000,0.000,0,4
-20,0,0,0,0.0,0.0,1,304.00,10.21,459.20,0.000,0.000,0.000,0.000,0.000,0.000,0,4
-10,0,0,0,0.0,0.0,1,304.00,10.21,459.20,0.000,0.000,0.000,0.000,0.000,0.000,0,4
0,0,0,0,0.0,0.0,1,304.00,10.21,459.20,0.000,0.000,0.000,0.000,0.000,0.000,0,0
10,0,0,0,1.08,0.0,1,304.00,10.21,459.20,0.000,-0.300,0.000,0.000,0.000,0.000,0,4
20,0,0,0,1.91,0.0,1,304.00,10.21,459.20,0.000,-0.531,0.000,0.000,0.000,0.000,0,4
30,0,0,0,2.88,0.0,1,304.00,10.20,459.20,0.000,-0.801,0.000,0.000,0.000,0.000,0,4
40,0,0,0,3.79,0.0,1,304.00,10.19,459.20,0.000,-1.054,0.000,0.000,0.000,0.000,0,4
50,0,0,0,4.62,0.0,1,304.00,10.18,459.20,0.000,-1.283,-0.000,-0.000,-0.000,-0.000,0,4
60,0,0,0,5.35,0.0,1,304.00,10.17,459.20,-0.000,-1.486,-0.000,-0.000,-0.000,-0.000,0,4
70,0,0,0,5.98,0.0,1,304.00,10.16,459.20,-0.000,-1.660,-0.000,-0.000,-0.000,-0.000,0,4
80,0,0,0,6.49,0.0,1,304.00,10.14,459.20,-0.000,-1.804,-0.000,-0.000,-0.000,-0.000,0,4
90,0,0,0,6.89,0.0,1,304.00,10.12,459.20,-0.000,-1.915,-0.000,-0.000,-0.000,-0.000,0,4
100,0,0,0,7.17,0.0,1,304.00,10.10,459.20,0.000,-1.993,-0.000,0.000,-0.000,0.000,0,4
110,0,0,0,7.33,0.0,1,304.00,10.08,459.20,0.000,-2.037,-0.000,0.000,-0.000,0.000,0,4
120,0,0,0,7.37,0.0,1,304.00,10.06,459.20,0.000,-2.048,-0.000,0.000,-0.000,0.000,0,4
130,0,0,0,7.29,0.0,1,304.00,10.04,459.20,-0.000,-2.026,-0.000,0.000,-0.000,0.000,0,4
140,0,0,0,7.1,0.0,1,304.00,10.02,459.20,-0.000,-1.973,-0.000,0.000,-0.000,0.000,0,4
150,0,0,0,5.09,0.0,1,304.00,10.00,459.20,-0.000,-1.415,-0.000,0.000,-0.000,0.000,0,4
160,0,0,0,3.67,0.0,1,304.00,10.00,459.20,-0.000,-1.020,-0.000,0.000,-0.000,0.000,0,4
170,0,0,0,2.7,0.0,1,304.00,10.00,459.20,-0.000,-0.751,-0.000,0.000,-0.000,0.000,0,4
180,0,0,0,1.98,0.01,1,304.00,10.00,459.20,-0.000,-0.550,-0.000,0.000,-0.000,0.000,0,4
190,0,0,0,1.44,0.01,1,304.00,10.00,459.20,-0.000,-0.400,-0.000,0.000,-0.000,0.001,0,4
200,0,0,0,1.04,0.02,1,304.00,10.00,459.20,-0.000,-0.288,-0.000,0.000,-0.000,0.001,0,4
210,0,0,0,0.74,0.03,1,304.00,10.00,459.20,-0.000,-0.204,-0.000,0.000,-0.000,0.001,0,4
220,0,0,0,0.51,0.04,1,304.00,10.00,459.20,-0.000,-0.142,-0.000,0.000,-0.000,0.001,0,4
230,0,65536,0,0.34,0.05,1,304.00,10.00,459.20,-0.000,-0.095,-0.000,0.000,-0.000,0.001,0,4
240,0,65536,0,0.53,0.06,1,304.00,10.00,459.20,-0.000,-0.068,0.130,0.000,-0.000,0.001,0,4
250,0,65536,0,1.06,0.07,1,304.00,10.00,459.20,-0.001,-0.048,0.290,0.000,-0.000,0.002,0,4
260,0,65536,0,1.62,48.01,1,304.00,10.00,459.20,-0.001,-0.033,0.450,0.000,-0.000,0.002,0,4
270,0,65536,0,2.2,107.18,1,304.00,10.00,459.21,-0.001,-0.021,0.610,0.000,-0.000,0.002,0,4
280,0,65536,0,2.77,166.36,1,304.00,10.00,459.21,-0.001,-0.011,0.769,0.000,-0.001,0.002,0,4
290,0,65536,0,3.35,225.52,1,304.00,10.00,459.22,-0.001,-0.001,0.929,0.000,-0.001,0.002,0,4
300,0,65536,0,3.92,284.68,1,304.00,10.00,459.23,-0.001,0.009,1.089,0.000,-0.001,0.002,0,4
310,0,65536,0,4.5,343.82,1,304.00,10.00,459.24,-0.001,0.018,1.249,-0.000,-0.001,0.002,0,4
320,0,65536,0,5.07,402.94,1,304.00,10.01,459.26,-0.001,0.027,1.408,-0.000,-0.002,0.002,0,4
330,0,65536,0,5.65,462.03,1,304.00,10.01,459.27,-0.001,0.036,1.568,-0.000,-0.002,0.002,0,4
340,0,65536,0,6.22,521.09,1,304.00,10.01,459.29,-0.001,0.045,1.727,-0.000,-0.002,0.002,0,4
350,0,65536,0,6.79,580.12,1,304.00,10.01,459.30,-0.001,0.052,1.886,-0.000,-0.003,0.002,0,4
360,0,65536,0,7.37,639.1,1,304.00,10.01,459.32,-0.001,0.058,2.046,-0.000,-0.003,0.002,0,4
370,0,65536,0,7.94,698.05,1,304.00,10.01,459.34,-0.001,0.064,2.205,-0.000,-0.004,0.002,0,4
380,0,65536,0,8.51,756.94,1,304.00,10.01,459.37,-0.001,0.066,2.363,-0.000,-0.005,0.002,0,4
390,0,65536,0,9.08,815.77,1,304.00,10.01,459.39,-0.001,0.067,2.522,-0.000,-0.005,0.002,0,4
400,0,65536,0,9.65,874.54,1,304.00,10.01,459.41,-0.001,0.066,2.680,-0.000,-0.006,0.002,0,4
410,0,65536,0,10.22,933.25,1,304.00,10.01,459.44,-0.001,0.064,2.839,-0.000,-0.006,0.002,0,4
420,0,65536,0,10.79,991.89,1,304.00,10.01,459.47,-0.001,0.060,2.997,-0.000,-0.007,0.002,0,4
430,0,65536,0,11.36,1050.46,1,304.00,10.01,459.50,-0.001,0.056,3.155,-0.000,-0.007,0.002,0,4
440,0,65536,0,11.93,1108.97,1,304.00,10.01,459.53,-0.001,0.050,3.313,-0.000,-0.008,0.002,0,4
450,0,65536,0,12.49,1167.41,1,304.00,10.01,459.57,-0.001,0.044,3.470,-0.000,-0.008,0.002,0,4
460,0,65536,0,13.06,1225.79,1,304.00,10.01,459.60,-0.001,0.037,3.628,-0.000,-0.009,0.002,0,4
470,0,65536,0,13.63,1284.12,1,304.00,10.01,459.64,-0.001,0.029,3.785,-0.000,-0.009,0.002,0,4
480,0,65536,0,14.19,1342.39,1,304.00,10.01,459.68,-0.001,0.020,3.943,-0.000,-0.010,0.002,0,4
490,0,65536,0,14.76,1400.61,1,304.00,10.01,459.71,-0.001,0.012,4.100,-0.000,-0.010,0.002,0,4
500,0,65536,0,15.33,1458.79,1,304.00,10.01,459.76,-0.001,0.003,4.257,-0.000,-0.010,0.002,0,4
510,0,65536,0,15.89,1516.93,1,304.00,10.01,459.80,-0.001,-0.006,4.414,-0.000,-0.010,0.001,0,4
520,0,65536,0,16.46,1575.05,1,304.00,10.01,459.84,-0.001,-0.015,4.571,-0.000,-0.010,0.001,0,4
530,0,65536,0,17.02,1633.15,1,304.00,10.01,459.89,-0.001,-0.024,4.728,-0.000,-0.010,0.001,0,4
540,0,65536,0,17.59,1691.23,1,304.00,10.01,459.94,-0.001,-0.032,4.885,-0.000,-0.010,0.001,0,4
550,0,65536,0,18.15,1749.31,1,304.00,10.01,459.98,-0.001,-0.040,5.042,-0.000,-0.010,0.001,0,4
560,0,65536,0,18.72,1807.39,1,304.00,10.01,460.03,-0.001,-0.047,5.200,-0.000,-0.010,0.001,0,4
570,0,65536,0,19.29,1865.48,1,304.00,10.01,460.09,-0.001,-0.053,5.357,-0.000,-0.010,0.001,0,4
580,0,65536,0,19.85,1923.59,1,304.00,10.01,460.14,-0.000,-0.058,5.514,-0.000,-0.009,0.001,0,4
590,0,65536,0,20.42,1981.71,1,304.00,10.01,460.20,-0.000,-0.063,5.671,-0.000,-0.009,0.001,0,4
600,0,65536,0,20.98,2039.86,1,304.00,10.01,460.25,-0.000,-0.067,5.829,-0.000,-0.009,0.001,0,4
610,0,65536,0,21.55,2098.04,1,304.00,10.01,460.31,-0.000,-0.070,5.986,-0.000,-0.008,0.000,0,4
620,0,65536,0,22.12,2156.26,1,304.00,10.01,460.37,-0.000,-0.072,6.143,-0.000,-0.008,0.000,0,4
630,0,65536,0,22.69,2214.51,1,304.00,10.01,460.43,-0.000,-0.072,6.301,-0.000,-0.008,0.000,0,4
640,0,65536,0,23.25,2272.8,1,304.00,10.01,460.49,-0.000,-0.072,6.459,-0.000,-0.007,0.000,0,4
650,0,65536,0,23.82,2331.13,1,304.00,10.01,460.56,-0.000,-0.071,6.617,-0.000,-0.007,0.000,0,4
660,0,65536,0,24.39,2389.51,1,304.00,10.01,460.62,-0.000,-0.069,6.775,-0.000,-0.007,0.000,0,4
670,0,65536,0,24.96,2447.92,1,304.00,10.01,460.69,-0.000,-0.067,6.933,-0.000,-0.006,0.000,0,4
680,0,65536,0,25.53,2506.38,1,304.00,10.01,460.76,-0.000,-0.063,7.091,-0.000,-0.006,0.000,0,4
690,0,65536,0,26.1,2564.87,1,304.00,10.01,460.83,-0.000,-0.059,7.249,-0.000,-0.006,0.000,0,4
700,0,65536,0,26.67,2623.4,1,304.00,10.01,460.90,-0.000,-0.054,7.407,-0.000,-0.005,-0.000,0,4
710,0,65536,0,27.24,2681.97,1,304.00,10.01,460.98,-0.000,-0.049,7.566,-0.000,-0.005,-0.000,0,4
720,0,65536,0,27.81,2740.57,1,304.00,10.01,461.05,-0.000,-0.044,7.724,-0.000,-0.005,-0.000,0,4
730,0,65536,0,28.38,2799.2,1,304.00,10.01,461.13,-0.000,-0.038,7.883,-0.000,-0.005,-0.000,0,4
740,0,65536,0,28.95,2857.85,1,304.00,10.01,461.21,-0.000,-0.032,8.041,-0.000,-0.005,-0.000,0,4
750,0,65536,0,29.52,2916.52,1,304.00,10.01,461.29,-0.000,-0.026,8.200,-0.000,-0.004,-0.000,0,4
760,0,65536,0,30.09,2975.21,1,304.00,10.01,461.37,-0.000,-0.020,8.359,-0.000,-0.004,-0.000,0,4
770,0,65536,0,30.66,3033.91,1,304.00,10.01,461.46,-0.000,-0.015,8.517,-0.000,-0.004,-0.000,0,4
780,0,65536,0,31.23,3092.62,1,304.00,10.01,461.54,-0.000,-0.009,8.676,-0.000,-0.004,-0.000,0,4
790,0,65536,0,31.8,3151.33,1,304.00,10.01,461.63,-0.000,-0.004,8.835,-0.000,-0.005,-0.000,0,4
800,0,65536,0,32.38,3210.05,1,304.00,10.01,461.72,-0.000,0.001,8.993,-0.000,-0.005,-0.000,0,4
810,0,65536,0,32.95,3268.75,1,304.00,10.01,461.81,-0.000,0.005,9.152,-0.000,-0.005,-0.000,0,4
820,0,65536,0,33.52,3327.45,1,304.00,10.01,461.90,-0.000,0.009,9.310,-0.000,-0.005,-0.000,0,4
830,0,65536,0,34.09,3386.14,1,304.00,10.01,461.99,-0.000,0.013,9.469,-0.000,-0.005,-0.000,0,4
840,0,65536,0,34.66,3444.81,1,304.00,10.01,462.09,-0.000,0.015,9.627,-0.000,-0.005,-0.000,0,4
850,0,65536,0,35.23,3503.46,1,304.00,10.01,462.18,-0.000,0.018,9.786,-0.000,-0.006,-0.000,0,4
860,0,65536,0,35.8,3562.09,1,304.00,10.01,462.28,-0.000,0.019,9.944,-0.000,-0.006,-0.000,0,4
870,0,65536,0,36.37,3620.7,1,304.00,10.01,462.38,-0.000,0.013,10.102,-0.000,-0.006,-0.000,0,4
880,0,65536,0,36.94,3679.28,1,304.00,10.01,462.48,-0.000,-0.004,10.261,-0.000,-0.006,-0.000,0,4
890,0,65536,0,37.51,3737.83,1,304.00,10.01,462.58,-0.000,-0.026,10.419,-0.000,-0.006,-0.000,0,4
900,0,65536,0,38.08,3796.35,1,304.00,10.01,462.69,-0.000,-0.051,10.577,-0.000,-0.006,-0.000,0,4
910,0,65536,0,38.65,3854.85,1,304.00,10.01,462.79,-0.000,-0.081,10.735,-0.000,-0.006,-0.000,0,4
920,0,65536,0,39.22,3913.34,1,304.00,10.01,462.90,-0.000,-0.113,10.894,-0.000,-0.006,-0.000,0,4
930,0,65536,0,39.79,3971.85,1,304.00,10.01,463.01,-0.000,-0.148,11.052,-0.000,-0.005,-0.000,0,4
940,0,65536,0,40.37,4030.4,1,304.00,10.01,463.12,-0.000,-0.186,11.211,-0.000,-0.004,-0.000,0,4
950,0,65536,0,40.94,4089.03,1,304.00,10.01,463.23,-0.000,-0.225,11.370,-0.000,-0.003,-0.000,0,4
960,0,65536,0,41.52,4147.75,1,304.00,10.00,463.34,-0.000,-0.265,11.529,-0.000,-0.002,-0.000,0,4
970,0,65536,0,42.09,4206.61,1,304.00,10.00,463.46,-0.000,-0.306,11.689,-0.000,0.000,-0.000,0,4
980,0,65536,0,42.67,4265.63,1,304.00,10.00,463.57,-0.000,-0.346,11.849,-0.000,0.002,-0.000,0,4
990,0,65536,0,43.26,4324.86,1,304.00,10.00,463.69,-0.000,-0.386,12.009,-0.000,0.004,-0.000,0,4
1000,0,65536,0,43.84,4384.31,1,304.00,9.99,463.81,-0.000,-0.424,12.170,-0.000,0.007,-0.000,0,4
1010,0,65536,0,44.43,4444.03,1,304.00,9.99,463.93,-0.000,-0.461,12.332,-0.000,0.010,-0.000,0,4
1020,0,65536,0,45.02,4504.04,1,304.00,9.99,464.05,-0.000,-0.495,12.495,-0.000,0.013,-0.000,0,4
1030,0,65536,0,45.61,4564.36,1,304.00,9.98,464.18,-0.001,-0.527,12.658,-0.000,0.016,0.000,0,4
1040,0,65536,0,46.2,4625.0,1,304.00,9.98,464.30,-0.001,-0.556,12.822,-0.000,0.019,0.000,0,4
1050,0,65536,0,46.8,4686.0,1,304.00,9.97,464.43,-0.001,-0.582,12.988,-0.000,0.023,0.000,0,4
1060,0,65536,0,47.4,4747.34,1,304.00,9.97,464.56,-0.001,-0.604,13.154,-0.000,0.026,0.000,0,4
1070,0,65536,0,48.01,4809.06,1,304.00,9.97,464.69,-0.001,-0.623,13.321,-0.000,0.030,0.000,0,4
1080,0,65536,0,48.62,4871.14,1,304.00,9.96,464.82,-0.001,-0.638,13.490,-0.000,0.034,0.000,0,4
1090,0,65536,0,49.23,4933.58,1,304.00,9.96,464.95,-0.001,-0.650,13.660,-0.000,0.038,0.000,0,4
1100,0,65536,0,49.85,4996.39,1,304.00,9.95,465.09,-0.001,-0.657,13.831,-0.000,0.043,0.000,0,4
1110,0,65536,0,50.47,5059.56,1,304.00,9.95,465.22,-0.001,-0.668,14.003,-0.000,0.047,0.000,0,4
1120,0,65536,0,51.1,5123.09,1,304.00,9.94,465.36,-0.001,-0.676,14.177,-0.000,0.051,0.000,0,4
1130,0,65536,0,51.73,5187.07,1,304.00,9.93,465.50,-0.001,-0.680,14.352,-0.000,0.055,0.000,0,4
1140,0,65536,0,52.36,5251.43,1,304.00,9.93,465.64,-0.001,-0.696,14.528,-0.000,0.059,0.000,0,4
1150,0,65536,0,53.0,5316.14,1,304.00,9.92,465.79,-0.001,-0.662,14.708,-0.000,0.063,0.000,0,4
1160,0,65536,0,53.65,5381.24,1,304.00,9.92,465.93,-0.001,-0.652,14.887,-0.000,0.066,0.000,0,4
1170,0,65536,0,54.29,5446.57,1,304.00,9.91,466.08,-0.001,-0.661,15.067,-0.000,0.069,0.000,0,4
1180,0,65536,0,54.94,5512.24,1,304.00,9.91,466.23,-0.001,-0.683,15.246,-0.000,0.071,0.000,0,4
1190,0,65536,0,55.59,5578.27,1,304.00,9.90,466.38,-0.001,-0.714,15.425,-0.000,0.073,0.000,0,4
1200,0,65536,0,56.24,5644.65,1,304.00,9.90,466.53,-0.001,-0.754,15.604,-0.000,0.075,0.000,0,4
1210,0,65536,0,56.89,5711.36,1,304.00,9.89,466.69,-0.001,-0.802,15.784,-0.000,0.076,0.000,0,4
1220,0,65536,0,57.55,5778.38,1,304.00,9.88,466.85,-0.001,-0.854,15.963,-0.000,0.077,0.000,0,4
1230,0,65536,0,58.2,5845.65,1,304.00,9.87,467.01,-0.001,-0.908,16.142,-0.000,0.077,0.000,0,4
1240,0,65536,0,58.86,5913.14,1,304.00,9.86,467.17,-0.001,-0.960,16.322,-0.000,0.077,0.000,0,4
1250,0,65536,0,59.52,5980.79,1,304.00,9.85,467.33,-0.001,-1.010,16.501,-0.000,0.076,0.000,0,4
1260,0,65536,0,60.17,6048.52,1,304.00,9.84,467.50,-0.001,-1.057,16.681,-0.000,0.075,0.000,0,4
1270,0,65536,0,60.83,6116.27,1,304.00,9.83,467.67,-0.001,-1.099,16.861,-0.000,0.074,0.000,0,4
1280,0,65536,0,61.48,6183.98,1,304.00,9.82,467.83,-0.001,-1.138,17.041,-0.000,0.073,0.000,0,4
1290,0,65536,0,62.14,6251.61,1,304.00,9.81,468.01,-0.001,-1.172,17.221,-0.000,0.071,0.000,0,4
1300,0,65536,0,62.79,6319.09,1,304.00,9.80,468.18,-0.001,-1.200,17.400,-0.000,0.069,0.000,0,4
1310,0,65536,0,63.44,6386.38,1,304.00,9.78,468.35,-0.001,-1.223,17.580,-0.000,0.066,0.000,0,4
1320,0,65536,0,64.09,6453.43,1,304.00,9.77,468.53,-0.001,-1.240,17.759,-0.000,0.064,0.000,0,4
1330,0,65536,0,64.73,6520.2,1,304.00,9.76,468.71,-0.001,-1.251,17.938,-0.000,0.061,0.000,0,4
1340,0,65536,0,65.37,6586.67,1,304.00,9.74,468.89,-0.001,-1.256,18.116,-0.000,0.058,0.000,0,4
1350,0,65536,0,66.01,6652.81,1,304.00,9.73,469.07,-0.001,-1.255,18.294,-0.000,0.055,0.000,0,4
1360,0,65536,0,66.64,6718.6,1,304.00,9.72,469.26,-0.001,-1.167,18.476,-0.000,0.052,0.000,0,4
1370,0,65536,0,67.28,6784.03,1,304.00,9.71,469.44,-0.001,-1.109,18.655,-0.000,0.050,0.000,0,4
1380,0,65536,0,67.91,6849.19,1,304.00,9.70,469.63,-0.001,-1.068,18.832,-0.000,0.048,0.000,0,4
1390,0,65536,0,68.53,6914.15,1,304.00,9.69,469.82,-0.001,-1.043,19.008,-0.000,0.046,0.000,0,4
1400,0,65536,0,69.16,6978.87,1,304.00,9.68,470.01,-0.001,-1.037,19.183,-0.000,0.044,0.000,0,4
1410,0,65536,0,69.78,7043.37,1,304.00,9.67,470.20,-0.001,-1.041,19.356,-0.000,0.042,0.000,0,4
1420,0,65536,0,70.41,7107.63,1,304.00,9.67,470.40,-0.001,-1.053,19.529,-0.000,0.041,0.000,0,4
1430,0,65536,0,71.03,7171.68,1,304.00,9.66,470.59,-0.001,-1.070,19.701,-0.000,0.040,0.000,0,4
1440,0,65536,0,71.65,7235.53,1,304.00,9.65,470.79,-0.001,-1.093,19.872,-0.000,0.039,0.001,0,4
1450,0,65536,0,72.27,7299.23,1,304.00,9.64,470.99,-0.001,-1.110,20.043,-0.000,0.038,0.001,0,4
1460,0,65536,0,72.89,7362.8,1,304.00,9.63,471.19,-0.001,-1.139,20.214,-0.000,0.037,0.001,0,4
1470,0,65536,0,73.5,7426.26,1,304.00,9.61,471.39,-0.001,-1.170,20.384,-0.000,0.037,0.001,0,4
1480,0,65536,0,74.12,7489.66,1,304.00,9.60,471.60,-0.001,-1.202,20.554,-0.000,0.037,0.001,0,4
1490,0,65536,0,74.74,7553.03,1,304.00,9.59,471.80,-0.001,-1.233,20.725,-0.000,0.037,0.001,0,4
1500,0,65536,0,75.36,7616.4,1,304.00,9.58,472.01,-0.001,-1.264,20.895,-0.000,0.038,0.001,0,4
1510,0,65536,0,75.98,7679.79,1,304.00,9.57,472.22,-0.001,-1.293,21.065,-0.000,0.038,0.001,0,4
1520,0,65536,0,76.6,7743.22,1,304.00,9.55,472.43,-0.001,-1.321,21.236,-0.000,0.039,0.001,0,4
1530,0,65536,0,77.22,7806.73,1,304.00,9.54,472.64,-0.001,-1.347,21.407,-0.000,0.040,0.001,0,4
1540,0,65536,0,77.84,7870.32,1,304.00,9.53,472.85,-0.001,-1.370,21.578,-0.000,0.041,0.001,0,4
1550,0,65536,0,78.46,7934.01,1,304.00,9.52,473.07,-0.001,-1.391,21.749,-0.000,0.042,0.001,0,4
1560,0,65536,0,79.08,7997.81,1,304.00,9.50,473.29,-0.001,-1.409,21.921,-0.000,0.043,0.001,0,4
1570,0,65536,0,79.7,8061.73,1,304.00,9.49,473.51,-0.001,-1.424,22.094,-0.000,0.044,0.001,0,4
1580,0,65536,0,80.33,8125.78,1,304.00,9.48,473.73,-0.001,-1.437,22.267,-0.000,0.045,0.001,0,4
1590,0,65536,0,80.95,8189.95,1,304.00,9.46,473.95,-0.001,-1.446,22.440,-0.000,0.047,0.001,0,4
1600,0,65536,0,81.58,8254.25,1,304.00,9.45,474.17,-0.001,-1.452,22.614,-0.000,0.048,0.001,0,4
1610,0,65536,0,82.16,8318.67,1,304.00,9.43,474.40,-0.001,-1.230,22.789,-0.000,0.049,0.001,0,4
1620,0,65536,0,82.76,8383.21,1,304.00,9.43,474.63,-0.001,-1.063,22.964,-0.000,0.049,0.001,0,4
1630,0,65536,0,83.37,8444.12,1,304.00,9.43,474.85,-0.001,-0.940,23.139,-0.000,0.049,0.001,0,4
1640,0,65536,0,83.98,8505.84,1,304.00,9.43,475.09,-0.001,-0.862,23.313,-0.000,0.048,0.001,0,2
1650,0,65536,0,84.6,8568.23,1,304.00,9.43,475.32,-0.001,-0.940,23.480,-0.000,0.046,0.001,0,2
1660,0,65536,0,85.21,8631.15,1,304.00,9.42,475.56,-0.001,-1.033,23.647,-0.000,0.043,0.001,0,4
1670,0,65536,0,85.82,8694.36,1,304.00,9.42,475.79,-0.001,-1.027,23.818,-0.000,0.038,0.001,0,4
1680,0,65536,0,86.44,8757.6,1,304.00,9.41,476.03,-0.001,-1.020,23.988,-0.000,0.033,0.001,0,4
1690,0,65536,0,87.04,8820.68,1,304.00,9.40,476.28,-0.001,-1.018,24.158,-0.000,0.028,0.001,0,4
1700,0,65536,0,87.65,8883.31,1,304.00,9.39,476.52,-0.002,-1.018,24.325,-0.000,0.022,0.001,0,4
1710,0,65536,0,88.25,8945.32,1,304.00,9.38,476.77,-0.002,-1.019,24.492,-0.000,0.016,0.001,0,4
1720,0,65536,0,88.84,9006.55,1,304.00,9.37,477.01,-0.002,-1.018,24.657,-0.000,0.010,0.001,0,4
1730,0,65536,0,89.41,9066.89,1,304.00,9.35,477.26,-0.002,-0.883,24.820,-0.000,0.004,0.002,0,4
1740,0,65536,0,89.96,9126.22,1,304.00,9.35,477.51,-0.002,-0.626,24.981,-0.000,-0.003,0.001,0,4
1750,0,65536,0,90.52,9184.32,1,304.00,9.36,477.77,-0.002,-0.443,25.140,-0.000,-0.008,0.000,0,4
1760,0,65536,0,91.08,9242.25,1,304.00,9.36,478.02,-0.002,-0.297,25.298,-0.000,-0.012,-0.000,0,2
1770,0,65536,0,91.65,9300.28,1,304.00,9.37,478.27,-0.002,-0.333,25.456,-0.000,-0.016,-0.001,0,2
1780,0,65536,0,92.22,9358.16,1,304.00,9.37,478.53,-0.002,-0.390,25.613,-0.000,-0.018,-0.001,0,2
1790,0,65536,0,92.79,9415.54,1,304.00,9.37,478.79,-0.002,-0.464,25.771,-0.000,-0.019,-0.002,0,2
1800,0,65536,0,93.36,9472.78,1,304.00,9.37,479.05,-0.001,-0.552,25.928,-0.000,-0.019,-0.002,0,3
1810,0,65536,0,93.93,9530.07,1,304.00,9.37,479.30,-0.001,-0.596,26.084,-0.000,-0.018,-0.002,0,4
1820,0,65536,0,94.48,9587.59,1,304.00,9.37,479.56,-0.001,-0.579,26.239,-0.000,-0.016,-0.002,0,4
1830,0,65536,0,95.04,9645.53,1,304.00,9.36,479.83,-0.001,-0.560,26.394,-0.000,-0.013,-0.002,0,4
1840,0,65536,0,95.6,9703.79,1,304.00,9.36,480.09,-0.001,-0.540,26.550,-0.000,-0.011,-0.002,0,4
1850,0,65536,0,96.16,9762.24,1,304.00,9.36,480.35,-0.001,-0.518,26.707,-0.000,-0.008,-0.001,0,4
1860,0,65536,0,96.73,9820.89,1,304.00,9.35,480.62,-0.001,-0.492,26.865,-0.000,-0.005,-0.001,0,4
1870,0,65536,0,97.29,9879.72,1,304.00,9.35,480.89,-0.001,-0.357,27.023,-0.000,-0.003,-0.001,0,4
1880,0,65536,0,97.86,9938.73,1,304.00,9.35,481.16,-0.002,-0.254,27.182,-0.000,-0.001,-0.001,0,4
1890,0,65536,0,98.43,9998.02,1,304.00,9.35,481.43,-0.002,-0.186,27.342,-0.000,0.001,-0.001,0,4
1900,0,65536,0,99.01,10057.23,1,304.00,9.35,481.70,-0.002,-0.134,27.502,-0.000,0.002,-0.000,0,4
1910,0,65536,0,99.59,10116.47,1,304.00,9.35,481.97,-0.002,-0.094,27.663,-0.000,0.003,-0.000,0,4
1920,0,65536,0,100.17,10175.8,1,304.00,9.35,482.25,-0.002,-0.064,27.824,-0.000,0.004,0.000,0,4
1930,0,65536,0,100.75,10235.22,1,304.00,9.35,482.53,-0.002,-0.041,27.985,-0.000,0.005,0.000,0,4
1940,0,65536,0,101.33,10294.74,1,304.00,9.36,482.81,-0.002,-0.031,28.146,-0.000,0.005,0.000,0,4
1950,0,65536,0,101.73,10354.34,1,304.00,9.36,483.09,-0.002,-0.026,28.258,-0.000,0.006,0.001,0,4
1960,0,65536,0,102.13,10414.02,1,304.00,9.36,483.37,-0.002,-0.025,28.369,-0.000,0.006,0.001,0,4
1970,0,65536,0,102.14,10455.28,2,304.00,9.36,483.65,-0.002,-0.025,28.371,-0.000,0.006,0.001,0,4
1980,0,65536,0,102.14,10455.28,2,304.00,9.36,483.94,-0.002,-0.026,28.373,-0.000,0.006,0.001,0,4
1990,0,65536,0,102.15,10455.28,2,304.00,9.36,484.22,-0.002,-0.028,28.375,-0.000,0.006,0.001,0,4
2000,0,65536,0,102.16,6241.98,2,304.00,9.36,484.51,-0.002,-0.029,28.376,-0.000,0.006,0.001,0,4
2010,0,65536,0,102.16,6242.37,2,304.00,9.36,484.79,-0.002,-0.030,28.378,-0.000,0.005,0.001,0,4
2020,0,65536,0,102.17,6242.75,2,304.00,9.36,485.07,-0.002,-0.031,28.380,-0.000,0.005,0.001,0,4
2030,0,65536,0,102.17,6243.13,2,304.00,9.36,485.36,-0.002,-0.031,28.381,-0.000,0.005,0.001,0,4
2040,0,65536,0,102.18,6243.49,2,304.00,9.36,485.64,-0.002,-0.030,28.383,-0.000,0.005,0.001,0,4
2050,0,65536,0,102.18,6243.84,2,304.00,9.36,485.93,-0.002,-0.028,28.384,-0.000,0.004,0.001,0,4
2060,0,65536,0,102.19,6244.17,2,304.00,9.36,486.21,-0.002,-0.026,28.385,-0.000,0.004,0.001,0,4
2070,0,65536,0,102.19,6244.48,2,304.00,9.35,486.49,-0.002,-0.023,28.387,-0.000,0.004,0.001,0,4
2080,0,65536,0,102.2,6244.77,2,304.00,9.35,486.78,-0.002,-0.020,28.388,-0.000,0.003,0.001,0,4
2090,0,65536,0,102.2,6245.04,2,304.00,9.35,487.06,-0.002,-0.011,28.389,-0.000,0.003,0.001,0,4
2100,0,65536,0,102.2,6245.28,2,304.00,9.35,487.35,-0.002,-0.003,28.390,-0.000,0.003,0.001,0,4
2110,0,65536,0,102.21,6245.5,2,304.00,9.35,487.63,-0.002,0.004,28.390,-0.000,0.002,0.001,0,4
2120,0,65536,0,102.21,6245.69,2,304.00,9.35,487.91,-0.002,0.010,28.391,-0.000,0.002,0.001,0,4
2130,0,65536,0,102.21,6245.86,2,304.00,9.35,488.20,-0.002,0.016,28.392,-0.000,0.002,0.001,0,4
2140,0,65536,0,102.21,6246.01,2,304.00,9.35,488.48,-0.002,0.023,28.392,-0.000,0.001,0.001,0,4
2150,0,65536,0,102.21,6246.13,2,304.00,9.35,488.77,-0.002,0.029,28.392,-0.000,0.001,0.001,0,4
2160,0,65536,0,102.21,6246.24,2,304.00,9.35,489.05,-0.002,0.035,28.393,-0.000,0.001,0.001,0,4
2170,0,65536,0,102.21,6246.32,2,304.00,9.35,489.33,-0.002,0.039,28.393,-0.000,0.000,0.001,0,4
2180,0,65536,0,102.22,6246.39,2,304.00,9.35,489.62,-0.002,0.043,28.393,-0.000,0.000,0.001,0,4
2190,0,65536,0,102.22,6246.44,2,304.00,9.36,489.90,-0.002,0.047,28.393,-0.000,-0.000,0.001,0,4
2200,0,65536,0,102.22,6246.47,2,304.00,9.36,490.19,-0.002,0.051,28.393,-0.000,-0.000,0.001,0,4
2210,0,65536,0,102.21,6246.48,2,304.00,9.36,490.47,-0.002,0.055,28.393,-0.000,-0.001,0.000,0,4
2220,0,65536,0,102.21,6246.47,2,304.00,9.36,490.75,-0.002,0.057,28.393,-0.000,-0.001,0.000,0,4
2230,0,65536,0,102.21,6246.44,2,304.00,9.36,491.04,-0.002,0.058,28.392,-0.000,-0.001,0.000,0,4
2240,0,65536,0,102.21,6246.4,2,304.00,9.36,491.32,-0.002,0.058,28.392,-0.000,-0.001,0.000,0,4
2250,0,65536,0,102.61,6246.33,2,304.00,9.36,491.61,-0.002,0.058,28.502,-0.000,-0.002,0.000,0,4
2260,0,65536,0,103.0,6246.25,2,304.00,9.36,491.89,-0.002,0.057,28.611,-0.000,-0.002,0.000,0,4
2270,0,65536,0,103.39,6270.36,2,304.00,9.36,492.18,-0.002,0.055,28.721,-0.000,-0.002,-0.000,0,4
2280,0,65536,0,103.79,6294.45,2,304.00,9.36,492.47,-0.002,0.053,28.830,-0.000,-0.002,-0.000,0,4
2290,0,65536,0,104.18,6318.52,2,304.00,9.36,492.75,-0.002,0.049,28.939,-0.000,-0.002,-0.000,0,4
2300,0,65536,0,104.57,6342.59,2,304.00,9.36,493.04,-0.002,0.045,29.049,-0.000,-0.003,-0.000,0,4
2310,0,65536,0,104.97,6366.64,2,304.00,9.36,493.33,-0.002,0.040,29.158,-0.000,-0.003,-0.000,0,4
2320,0,65536,0,105.36,6390.68,2,304.00,9.36,493.63,-0.001,0.035,29.267,-0.000,-0.003,-0.000,0,4
2330,0,65536,0,105.75,6414.71,2,304.00,9.36,493.92,-0.001,0.029,29.376,-0.000,-0.003,-0.001,0,4
2340,0,65536,0,106.15,6438.72,2,304.00,9.36,494.21,-0.001,0.023,29.485,-0.000,-0.003,-0.001,0,4
2350,0,65536,0,106.54,6462.72,2,304.00,9.36,494.51,-0.001,0.017,29.594,-0.000,-0.004,-0.001,0,4
2360,0,65536,0,106.93,6486.7,2,304.00,9.36,494.80,-0.001,0.010,29.703,-0.000,-0.004,-0.001,0,4
2370,0,65536,0,107.32,6510.67,2,304.00,9.36,495.10,-0.001,0.004,29.812,-0.000,-0.004,-0.001,0,4
2380,0,65536,0,107.71,6534.63,2,304.00,9.36,495.40,-0.001,-0.002,29.921,-0.000,-0.004,-0.001,0,4
2390,0,65536,0,108.11,6558.59,2,304.00,9.36,495.70,-0.001,-0.008,30.030,-0.000,-0.004,-0.001,0,4
2400,0,65536,0,108.5,6606.46,2,304.00,9.36,496.00,-0.001,0.013,30.138,-0.000,-0.004,-0.001,0,4
2410,0,65536,0,108.89,6630.39,2,304.00,9.36,496.30,-0.001,0.015,30.247,-0.000,-0.004,-0.001,0,4
2420,0,65536,0,109.28,6654.32,2,304.00,9.36,496.60,-0.001,0.016,30.356,-0.000,-0.004,-0.001,0,4
2430,0,65536,0,109.67,6678.24,2,304.00,9.36,496.91,-0.001,0.016,30.465,-0.000,-0.004,-0.001,0,4
2440,0,65536,0,110.06,6702.17,2,304.00,9.36,497.21,-0.001,0.017,30.573,-0.000,-0.004,-0.001,0,4
2450,0,65536,0,110.46,6726.09,2,304.00,9.36,497.52,-0.001,0.017,30.682,-0.000,-0.004,-0.000,0,4
2460,0,65536,0,110.85,6750.02,2,304.00,9.36,497.82,-0.001,0.017,30.791,-0.000,-0.004,-0.000,0,4
2470,0,65536,0,111.24,6773.95,2,304.00,9.36,498.13,-0.002,0.016,30.900,-0.000,-0.004,-0.000,0,4
2480,0,65536,0,111.63,6797.89,2,304.00,9.36,498.44,-0.002,0.016,31.008,-0.000,-0.004,-0.000,0,4
2490,0,65536,0,112.02,6821.83,2,304.00,9.36,498.75,-0.002,0.015,31.117,-0.000,-0.004,-0.000,0,4
2500,0,65536,0,112.41,6845.78,2,304.00,9.36,499.06,-0.002,0.014,31.226,-0.000,-0.004,-0.000,0,4
2510,0,65536,0,112.81,6869.74,2,304.00,9.36,499.38,-0.002,0.013,31.335,-0.000,-0.003,-0.000,0,4
2520,0,65536,0,113.2,6893.71,2,304.00,9.36,499.69,-0.002,0.011,31.444,-0.000,-0.003,-0.000,0,4
2530,0,65536,0,113.59,6917.69,2,304.00,9.36,500.00,-0.002,0.010,31.553,-0.000,-0.003,0.000,0,4
2540,0,65536,0,113.98,6941.67,2,304.00,9.36,500.32,-0.002,0.008,31.662,-0.000,-0.003,0.000,0,4
2550,0,65536,0,114.38,6965.67,2,304.00,9.36,500.64,-0.002,0.006,31.771,-0.000,-0.003,0.000,0,4
2560,0,65536,0,114.77,6989.67,2,304.00,9.36,500.95,-0.002,0.004,31.880,-0.000,-0.003,0.000,0,4
2570,0,65536,0,115.16,7013.68,2,304.00,9.36,501.27,-0.002,0.002,31.990,-0.000,-0.003,0.000,0,4
2580,0,65536,0,115.56,7037.71,2,304.00,9.36,501.59,-0.002,0.000,32.099,-0.000,-0.003,0.000,0,4
2590,0,65536,0,115.95,7061.74,2,304.00,9.36,501.91,-0.002,-0.001,32.208,-0.000,-0.002,0.000,0,4
2600,0,65536,0,116.34,7085.78,2,304.00,9.36,502.24,-0.002,-0.003,32.317,-0.000,-0.002,0.000,0,4
2610,0,65536,0,116.74,7109.82,2,304.00,9.36,502.56,-0.002,-0.005,32.427,-0.000,-0.002,0.000,0,4
2620,0,65536,0,117.13,7133.87,2,304.00,9.36,502.88,-0.002,-0.006,32.536,-0.000,-0.002,0.000,0,4
2630,0,65536,0,117.52,7157.93,2,304.00,9.36,503.21,-0.002,-0.008,32.645,-0.000,-0.002,0.000,0,4
2640,0,65536,0,117.92,7181.99,2,304.00,9.36,503.54,-0.002,-0.009,32.755,-0.000,-0.002,0.000,0,4
2650,0,65536,0,118.31,7206.05,2,304.00,9.36,503.87,-0.002,-0.010,32.864,-0.000,-0.002,0.000,0,4
2660,0,65536,0,118.71,7230.12,2,304.00,9.36,504.19,-0.002,-0.011,32.974,-0.000,-0.002,0.000,0,4
2670,0,65536,0,119.1,7254.18,2,304.00,9.36,504.52,-0.002,-0.012,33.083,-0.000,-0.002,0.000,0,4
2680,0,65536,0,119.49,7278.25,2,304.00,9.36,504.86,-0.002,-0.012,33.192,-0.000,-0.002,0.000,0,4
2690,0,65536,0,119.89,7302.32,2,304.00,9.36,505.19,-0.002,-0.012,33.302,-0.000,-0.002,0.000,0,4
2700,0,65536,0,120.28,7326.38,2,304.00,9.36,505.52,-0.002,-0.012,33.411,-0.000,-0.002,0.000,0,4
2710,0,65536,0,120.67,7350.45,2,304.00,9.36,505.85,-0.002,-0.012,33.521,-0.000,-0.002,0.000,0,4
2720,0,65536,0,121.07,7374.5,2,304.00,9.36,506.19,-0.002,-0.012,33.630,-0.000,-0.002,0.000,0,4
2730,0,65536,0,121.46,7398.56,2,304.00,9.36,506.53,-0.002,-0.011,33.739,-0.000,-0.002,0.000,0,4
2740,0,65536,0,121.85,7422.61,2,304.00,9.36,506.86,-0.002,-0.011,33.849,-0.000,-0.002,0.000,0,4
2750,0,65536,0,122.25,7446.65,2,304.00,9.36,507.20,-0.002,-0.010,33.958,-0.000,-0.002,0.000,0,4
2760,0,65536,0,122.64,7470.69,2,304.00,9.36,507.54,-0.002,-0.009,34.067,-0.000,-0.003,0.000,0,4
2770,0,65536,0,123.03,7494.73,2,304.00,9.36,507.88,-0.002,-0.008,34.176,-0.000,-0.003,0.000,0,4
2780,0,65536,0,123.43,7518.75,2,304.00,9.36,508.23,-0.002,-0.007,34.285,-0.000,-0.003,0.000,0,4
2790,0,65536,0,123.82,7542.77,2,304.00,9.36,508.57,-0.002,-0.005,34.395,-0.000,-0.003,-0.000,0,4
2800,0,65536,0,124.21,7566.79,2,304.00,9.36,508.91,-0.002,-0.004,34.504,-0.000,-0.003,-0.000,0,4
2810,0,65536,0,124.61,7590.79,2,304.00,9.36,509.26,-0.002,-0.003,34.613,-0.000,-0.003,-0.000,0,4
2820,0,65536,0,125.0,7614.8,2,304.00,9.36,509.61,-0.002,-0.001,34.722,-0.000,-0.003,-0.000,0,4
2830,0,65536,0,125.39,7638.79,2,304.00,9.36,509.95,-0.002,0.000,34.831,-0.000,-0.003,-0.000,0,4
2840,0,65536,0,125.78,7662.79,2,304.00,9.36,510.30,-0.002,0.002,34.940,-0.000,-0.003,-0.000,0,4
2850,0,65536,0,126.18,7686.77,2,304.00,9.36,510.65,-0.002,0.003,35.049,-0.000,-0.003,-0.000,0,4
2860,0,65536,0,126.57,7710.76,2,304.00,9.36,511.00,-0.002,0.004,35.158,-0.000,-0.003,-0.000,0,4
2870,0,65536,0,126.96,7734.74,2,304.00,9.36,511.35,-0.002,0.005,35.267,-0.000,-0.003,-0.000,0,4
2880,0,65536,0,127.35,7758.71,2,304.00,9.36,511.71,-0.002,0.006,35.376,-0.000,-0.003,-0.000,0,4
2890,0,65536,0,127.75,7782.69,2,304.00,9.36,512.06,-0.002,0.007,35.485,-0.000,-0.003,-0.000,0,4
2900,0,65536,0,128.14,7806.66,2,304.00,9.36,512.42,-0.002,0.008,35.594,-0.000,-0.003,-0.000,0,4
2910,0,65536,0,128.53,7830.64,2,304.00,9.36,512.77,-0.002,0.008,35.703,-0.000,-0.003,-0.000,0,4
2920,0,65536,0,128.92,7854.61,2,304.00,9.36,513.13,-0.002,0.009,35.812,-0.000,-0.003,-0.000,0,4
2930,0,65536,0,129.32,7878.58,2,304.00,9.36,513.49,-0.002,0.009,35.921,-0.000,-0.003,-0.000,0,4
2940,0,65536,0,129.71,7902.56,2,304.00,9.36,513.85,-0.002,0.009,36.030,-0.000,-0.003,-0.000,0,4
2950,0,65536,0,130.1,7926.53,2,304.00,9.36,514.21,-0.002,0.009,36.139,-0.000,-0.003,-0.000,0,4
2960,0,65536,0,130.49,7950.51,2,304.00,9.36,514.57,-0.002,0.009,36.248,-0.000,-0.003,-0.000,0,4
2970,0,65536,0,130.88,7974.49,2,304.00,9.36,514.93,-0.002,0.009,36.357,-0.000,-0.003,-0.000,0,4
2980,0,65536,0,131.28,7998.48,2,304.00,9.36,515.30,-0.002,0.008,36.466,-0.000,-0.003,-0.000,0,4
2990,0,65536,0,131.67,8022.47,2,304.00,9.36,515.66,-0.002,0.008,36.575,-0.000,-0.003,-0.000,0,4
3000,0,65536,0,132.06,8046.46,2,304.00,9.36,516.03,-0.002,0.007,36.684,-0.000,-0.003,-0.000,0,4
3010,0,65536,0,132.46,8070.46,2,304.00,9.36,516.39,-0.002,0.006,36.793,-0.000,-0.003,-0.000,0,4
3020,0,65536,0,132.85,8094.46,2,304.00,9.36,516.76,-0.002,0.005,36.902,-0.000,-0.003,-0.000,0,4
3030,0,65536,0,133.24,8118.46,2,304.00,9.36,517.13,-0.002,0.004,37.011,-0.000,-0.003,-0.000,0,4
3040,0,65536,0,133.63,8142.47,2,304.00,9.36,517.50,-0.002,0.003,37.121,-0.000,-0.003,-0.000,0,4
3050,0,65536,0,134.03,8166.48,2,304.00,9.36,517.87,-0.002,0.002,37.230,-0.000,-0.003,0.000,0,4
3060,0,65536,0,134.42,8190.5,2,304.00,9.36,518.25,-0.002,0.001,37.339,-0.000,-0.003,0.000,0,4
3070,0,65536,0,134.81,8214.52,2,304.00,9.36,518.62,-0.002,0.000,37.448,-0.000,-0.003,0.000,0,4
3080,0,65536,0,135.21,8238.54,2,304.00,9.36,519.00,-0.002,-0.000,37.557,-0.000,-0.003,0.000,0,4
3090,0,65536,0,135.6,8262.56,2,304.00,9.36,519.37,-0.002,-0.001,37.666,-0.000,-0.003,0.000,0,4
3100,0,65536,0,135.99,8286.59,2,304.00,9.36,519.75,-0.002,-0.002,37.776,-0.000,-0.003,0.000,0,4
3110,0,65536,0,136.39,8310.62,2,304.00,9.36,520.13,-0.002,-0.003,37.885,-0.000,-0.003,0.000,0,4
3120,0,65536,0,136.78,8334.66,2,304.00,9.36,520.51,-0.002,-0.004,37.994,-0.000,-0.003,0.000,0,4
3130,0,65536,0,137.17,8358.69,2,304.00,9.36,520.89,-0.002,-0.005,38.103,-0.000,-0.003,0.000,0,4
3140,0,65536,0,137.57,8382.72,2,304.00,9.36,521.27,-0.002,-0.005,38.213,-0.000,-0.002,0.000,0,4
3150,0,65536,0,137.96,8406.76,2,304.00,9.36,521.65,-0.002,-0.006,38.322,-0.000,-0.003,0.000,0,4
3160,0,65536,0,138.35,8430.79,2,304.00,9.36,522.03,-0.002,-0.006,38.431,-0.000,-0.003,0.000,0,4
3170,0,65536,0,138.75,8454.83,2,304.00,9.36,522.42,-0.002,-0.006,38.540,-0.000,-0.003,0.000,0,4
3180,0,65536,0,139.14,8478.86,2,304.00,9.36,522.80,-0.002,-0.006,38.650,-0.000,-0.003,0.000,0,4
3190,0,65536,0,139.53,8502.9,2,304.00,9.36,523.19,-0.002,-0.006,38.759,-0.000,-0.003,0.000,0,4
3200,0,65536,0,139.93,8526.93,2,304.00,9.36,523.58,-0.002,-0.006,38.868,-0.000,-0.003,0.000,0,4
3210,0,65536,0,140.32,8550.96,2,304.00,9.36,523.97,-0.002,-0.006,38.977,-0.000,-0.003,0.000,0,4
3220,0,65536,0,140.71,8574.98,2,304.00,9.36,524.36,-0.002,-0.006,39.087,-0.000,-0.003,0.000,0,4
3230,0,65536,0,141.1,8599.01,2,304.00,9.36,524.75,-0.002,-0.006,39.196,-0.000,-0.003,0.000,0,4
3240,0,65536,0,141.5,8623.03,2,304.00,9.36,525.14,-0.002,-0.005,39.305,-0.000,-0.003,0.000,0,4
3250,0,65536,0,141.89,8647.05,2,304.00,9.36,525.53,-0.002,-0.005,39.414,-0.000,-0.003,0.000,0,4
3260,0,65536,0,142.28,8671.07,2,304.00,9.36,525.93,-0.002,-0.004,39.523,-0.000,-0.003,0.000,0,4
3270,0,65536,0,142.68,8695.08,2,304.00,9.36,526.32,-0.002,-0.004,39.632,-0.000,-0.003,0.000,0,4
3280,0,65536,0,143.07,8719.09,2,304.00,9.36,526.72,-0.002,-0.003,39.742,-0.000,-0.003,0.000,0,4
3290,0,65536,0,143.46,8743.1,2,304.00,9.36,527.12,-0.002,-0.002,39.851,-0.000,-0.003,0.000,0,4
3300,0,65536,0,143.86,8767.11,2,304.00,9.36,527.52,-0.002,-0.001,39.960,-0.000,-0.003,0.000,0,4
3310,0,65536,0,144.25,8791.11,2,304.00,9.36,527.92,-0.002,-0.001,40.069,-0.000,-0.003,-0.000,0,4
3320,0,65536,0,144.64,8815.11,2,304.00,9.36,528.32,-0.002,-0.000,40.178,-0.000,-0.003,-0.000,0,4
3330,0,65536,0,145.03,8839.12,2,304.00,9.36,528.72,-0.002,0.001,40.287,-0.000,-0.003,-0.000,0,4
3340,0,65536,0,145.43,8863.11,2,304.00,9.36,529.12,-0.002,0.001,40.396,-0.000,-0.003,-0.000,0,4
3350,0,65536,0,145.82,8887.11,2,304.00,9.36,529.53,-0.002,0.002,40.505,-0.000,-0.003,-0.000,0,4
3360,0,65536,0,146.21,8911.11,2,304.00,9.36,529.93,-0.002,0.002,40.614,-0.000,-0.003,-0.000,0,4
3370,0,65536,0,146.6,8935.1,2,304.00,9.36,530.34,-0.002,0.003,40.723,-0.000,-0.003,-0.000,0,4
3380,0,65536,0,147.0,8959.09,2,304.00,9.36,530.75,-0.002,0.003,40.832,-0.000,-0.003,-0.000,0,4
3390,0,65536,0,147.39,8983.09,2,304.00,9.36,531.15,-0.002,0.004,40.941,-0.000,-0.003,-0.000,0,4
3400,0,65536,0,147.78,9007.08,2,304.00,9.36,531.56,-0.002,0.004,41.051,-0.000,-0.003,-0.000,0,4
3410,0,65536,0,148.17,9031.08,2,304.00,9.36,531.97,-0.002,0.004,41.160,-0.000,-0.003,-0.000,0,4
3420,0,65536,0,148.57,9055.07,2,304.00,9.36,532.39,-0.002,0.005,41.269,-0.000,-0.003,-0.000,0,4
3430,0,65536,0,148.96,9079.07,2,304.00,9.36,532.80,-0.002,0.005,41.378,-0.000,-0.003,-0.000,0,4
3440,0,65536,0,149.35,9103.07,2,304.00,9.36,533.21,-0.002,0.005,41.487,-0.000,-0.003,-0.000,0,4
3450,0,65536,0,149.75,9127.06,2,304.00,9.36,533.63,-0.002,0.005,41.596,-0.000,-0.003,-0.000,0,4
3460,0,65536,0,150.14,9151.06,2,304.00,9.36,534.04,-0.002,0.004,41.705,-0.000,-0.003,-0.000,0,4
3470,0,65536,0,150.53,9175.06,2,304.00,9.36,534.46,-0.002,0.004,41.814,-0.000,-0.003,-0.000,0,4
3480,0,65536,0,150.92,9199.07,2,304.00,9.36,534.88,-0.002,0.004,41.923,-0.000,-0.003,-0.000,0,4
3490,0,65536,0,151.32,9223.07,2,304.00,9.36,535.30,-0.002,0.004,42.032,-0.000,-0.003,-0.000,0,4
3500,0,65536,0,151.71,9247.08,2,304.00,9.36,535.72,-0.002,0.003,42.141,-0.000,-0.003,-0.000,0,4
3510,0,65536,0,152.1,9271.08,2,304.00,9.36,536.14,-0.002,0.003,42.251,-0.000,-0.003,-0.000,0,4
3520,0,65536,0,152.5,9295.09,2,304.00,9.36,536.57,-0.002,0.002,42.360,-0.000,-0.003,-0.000,0,4
3530,0,65536,0,152.89,9319.11,2,304.00,9.36,536.99,-0.002,0.002,42.469,-0.000,-0.003,-0.000,0,4
3540,0,65536,0,153.28,9343.12,2,304.00,9.36,537.41,-0.002,0.001,42.578,-0.000,-0.003,-0.000,0,4
3550,0,65536,0,153.67,9367.13,2,304.00,9.36,537.84,-0.002,0.001,42.687,-0.000,-0.003,-0.000,0,4
3560,0,65536,0,154.07,9391.15,2,304.00,9.36,538.27,-0.002,0.000,42.796,-0.000,-0.003,-0.000,0,4
3570,0,65536,0,154.46,9415.17,2,304.00,9.36,538.70,-0.002,-0.000,42.906,-0.000,-0.003,0.000,0,4
3580,0,65536,0,154.85,9439.19,2,304.00,9.36,539.12,-0.002,-0.001,43.015,-0.000,-0.003,0.000,0,4
3590,0,65536,0,155.25,9463.21,2,304.00,9.36,539.56,-0.002,-0.001,43.124,-0.000,-0.003,0.000,0,4
3600,0,65536,0,155.64,9487.23,2,304.00,9.36,539.99,-0.002,-0.002,43.233,-0.000,-0.003,0.000,0,4
3610,0,65536,0,156.03,9511.25,2,304.00,9.36,540.42,-0.002,-0.002,43.342,-0.000,-0.003,0.000,0,4
3620,0,65536,0,156.43,9535.27,2,304.00,9.36,540.85,-0.002,-0.002,43.451,-0.000,-0.003,0.000,0,4
3630,0,65536,0,156.82,9559.29,2,304.00,9.36,541.29,-0.002,-0.003,43.561,-0.000,-0.003,0.000,0,4
3640,0,65536,0,157.21,9583.31,2,304.00,9.36,541.72,-0.002,-0.003,43.670,-0.000,-0.003,0.000,0,4
3650,0,65536,0,157.6,9607.33,2,304.00,9.36,542.16,-0.002,-0.003,43.779,-0.000,-0.003,0.000,0,4
3660,0,65536,0,158.0,9631.35,2,304.00,9.36,542.60,-0.002,-0.003,43.888,-0.000,-0.003,0.000,0,4
3670,0,65536,0,158.39,9655.37,2,304.00,9.36,543.04,-0.002,-0.003,43.997,-0.000,-0.003,0.000,0,4
3680,0,65536,0,158.78,9679.39,2,304.00,9.36,543.48,-0.002,-0.003,44.107,-0.000,-0.003,0.000,0,4
3690,0,65536,0,159.18,9703.41,2,304.00,9.36,543.92,-0.002,-0.003,44.216,-0.000,-0.003,0.000,0,4
3700,0,65536,0,159.57,9727.42,2,304.00,9.36,544.36,-0.002,-0.003,44.325,-0.000,-0.003,0.000,0,4
3710,0,65536,0,159.96,9751.44,2,304.00,9.36,544.81,-0.002,-0.003,44.434,-0.000,-0.003,0.000,0,4
3720,0,65536,0,160.36,9775.46,2,304.00,9.36,545.25,-0.002,-0.003,44.543,-0.000,-0.003,0.000,0,4
3730,0,65536,0,160.75,9799.47,2,304.00,9.36,545.70,-0.002,-0.003,44.652,-0.000,-0.003,0.000,0,4
3740,0,65536,0,161.14,9823.48,2,304.00,9.36,546.14,-0.002,-0.002,44.762,-0.000,-0.003,0.000,0,4
3750,0,65536,0,161.53,9847.5,2,304.00,9.36,546.59,-0.002,-0.002,44.871,-0.000,-0.003,0.000,0,4
3760,0,65536,0,161.93,9871.51,2,304.00,9.36,547.04,-0.002,-0.002,44.980,-0.000,-0.003,0.000,0,4
3770,0,65536,0,162.32,9895.52,2,304.00,9.36,547.49,-0.002,-0.001,45.089,-0.000,-0.003,0.000,0,4
3780,0,65536,0,162.32,9907.52,3,304.00,9.36,547.94,-0.002,-0.001,45.088,-0.000,-0.003,0.000,0,4
3790,0,65536,0,162.31,9907.52,3,304.00,9.36,548.39,-0.002,-0.001,45.087,-0.000,-0.003,0.000,0,4
3800,0,65536,0,162.31,7213.92,3,304.00,9.36,548.84,-0.002,-0.001,45.086,-0.000,-0.003,0.000,0,4
3810,0,65536,0,162.31,7213.78,3,304.00,9.36,549.29,-0.002,-0.001,45.085,-0.000,-0.003,0.000,0,4
3820,0,65536,0,162.3,7213.65,3,304.00,9.36,549.74,-0.002,-0.001,45.085,-0.000,-0.003,0.000,0,4
3830,0,65536,0,162.3,7213.52,3,304.00,9.36,550.19,-0.002,-0.001,45.084,-0.000,-0.002,-0.000,0,4
3840,0,65536,0,162.3,7213.41,3,304.00,9.36,550.65,-0.002,-0.001,45.083,-0.000,-0.002,-0.000,0,4
3850,0,65536,0,162.3,7213.3,3,304.00,9.36,551.10,-0.002,-0.001,45.083,-0.000,-0.002,-0.000,0,4
3860,0,65536,0,162.3,7213.21,3,304.00,9.36,551.55,-0.002,-0.001,45.082,-0.000,-0.002,-0.000,0,4
3870,0,65536,0,162.29,7213.12,3,304.00,9.36,552.00,-0.002,-0.000,45.082,-0.000,-0.001,-0.000,0,4
3880,0,65536,0,162.29,7213.06,3,304.00,9.36,552.45,-0.002,-0.000,45.081,-0.000,-0.001,-0.000,0,4
3890,0,65536,0,162.29,7213.0,3,304.00,9.36,552.90,-0.002,-0.000,45.081,-0.000,-0.001,-0.000,0,4
3900,0,65536,0,162.29,7212.96,3,304.00,9.36,553.35,-0.002,-0.000,45.081,-0.000,-0.000,-0.000,0,4
3910,0,65536,0,162.29,7212.93,3,304.00,9.36,553.80,-0.002,0.000,45.081,-0.000,-0.000,-0.000,0,4
3920,0,65536,0,162.29,7212.92,3,304.00,9.36,554.25,-0.002,0.000,45.081,-0.000,0.000,-0.000,0,4
3930,0,65536,0,162.29,7212.92,3,304.00,9.36,554.70,-0.002,0.000,45.081,-0.000,0.001,-0.000,0,4
3940,0,65536,0,162.29,7212.94,3,304.00,9.36,555.15,-0.002,0.001,45.081,-0.000,0.001,-0.000,0,4
3950,0,65536,0,162.29,7212.97,3,304.00,9.36,555.60,-0.002,0.001,45.081,-0.000,0.001,-0.000,0,4
3960,0,65536,0,162.49,7213.01,3,304.00,9.36,556.05,-0.002,0.001,45.137,-0.000,0.001,-0.000,0,4
3970,0,65536,0,162.89,7221.86,3,304.00,9.36,556.50,-0.002,0.001,45.247,-0.000,0.001,-0.000,0,4
3980,-65536,65536,0,163.29,7239.53,3,304.00,9.36,556.96,-0.002,0.001,45.358,-0.000,0.002,-0.000,0,4
3990,-65536,65536,0,163.68,7257.2,3,304.00,9.36,557.41,0.056,0.000,45.468,-0.000,0.002,-0.000,0,4
4000,-65536,65536,0,164.08,7274.83,3,304.00,9.36,557.87,0.150,0.000,45.577,0.000,0.002,-0.000,0,4
4010,-65536,65536,0,164.47,7292.34,3,304.00,9.36,558.32,0.265,0.000,45.685,0.001,0.001,0.000,0,4
4020,-65536,65536,0,164.85,7309.64,3,304.00,9.36,558.78,0.398,0.000,45.791,0.002,0.001,0.000,0,4
4030,-65536,65536,0,165.23,7326.67,3,304.01,9.36,559.24,0.554,0.000,45.894,0.004,0.001,0.001,0,4
4040,-65536,65536,0,165.61,7343.35,3,304.01,9.36,559.70,0.682,0.000,45.997,0.006,0.001,0.001,0,4
4050,-65536,65536,0,165.98,7360.05,3,304.02,9.36,560.16,0.808,0.000,46.099,0.009,0.000,0.002,0,4
4060,-65536,65536,0,166.36,7376.78,3,304.03,9.36,560.62,0.955,0.000,46.201,0.013,-0.000,0.003,0,4
4070,-65536,65536,0,166.73,7393.48,3,304.04,9.36,561.08,1.131,0.000,46.301,0.018,-0.001,0.004,0,4
4080,-65536,65536,0,167.1,7410.14,3,304.05,9.36,561.55,1.335,0.000,46.399,0.023,-0.001,0.004,0,4
